$GPRMC,051151.00,A,1046.18114,N,10639.56567,E,1.022,,221120,,,A*76
$GPVTG,,T,,M,1.022,N,1.892,K,A*20
$GPGGA,051151.00,1046.18114,N,10639.56567,E,1,07,1.08,41.7,M,-2.6,M,,*7C
$GPGSA,A,3,24,29,15,20,23,32,12,,,,,,1.78,1.08,1.42*0A
$GPGSV,3,1,11,10,37,347,,12,26,093,29,15,06,063,14,18,57,189,08*79
$GPGSV,3,2,11,20,62,032,25,23,55,028,22,24,22,034,17,25,36,138,*7C
$GPGSV,3,3,11,29,07,167,07,31,27,221,15,32,28,304,12*4F
$GPGLL,1046.18114,N,10639.56567,E,051151.00,A,A*6C
$GPRMC,051152.00,A,1046.18100,N,10639.56554,E,0.839,,221120,,,A*73
$GPVTG,,T,,M,0.839,N,1.554,K,A*24
$GPGGA,051152.00,1046.18100,N,10639.56554,E,1,06,1.98,42.0,M,-2.6,M,,*76
$GPGSA,A,3,24,15,20,23,32,12,,,,,,,2.51,1.98,1.54*07
$GPGSV,3,1,11,10,37,347,,12,26,093,30,15,06,063,16,18,57,189,07*7C
$GPGSV,3,2,11,20,62,032,25,23,55,028,22,24,22,034,17,25,36,138,*7C
$GPGSV,3,3,11,29,07,167,07,31,27,221,15,32,28,304,11*4C
$GPGLL,1046.18100,N,10639.56554,E,051152.00,A,A*6A
$GPRMC,051153.00,A,1046.18103,N,10639.56548,E,0.978,,221120,,,A*78
$GPVTG,,T,,M,0.978,N,1.812,K,A*2F
$GPGGA,051153.00,1046.18103,N,10639.56548,E,1,06,1.98,42.0,M,-2.6,M,,*79
$GPGSA,A,3,24,15,20,23,32,12,,,,,,,2.51,1.98,1.54*07
$GPGSV,3,1,11,10,37,347,,12,26,093,29,15,06,063,18,18,57,189,08*75
$GPGSV,3,2,11,20,62,032,25,23,55,028,23,24,22,034,17,25,36,138,*7D
$GPGSV,3,3,11,29,07,167,07,31,27,221,15,32,28,304,11*4C
$GPGLL,1046.18103,N,10639.56548,E,051153.00,A,A*65
$GPRMC,051154.00,A,1046.18107,N,10639.56525,E,0.930,,221120,,,A*7C
$GPVTG,,T,,M,0.930,N,1.722,K,A*2F
$GPGGA,051154.00,1046.18107,N,10639.56525,E,1,06,1.99,42.2,M,-2.6,M,,*72
$GPGSA,A,3,24,15,20,23,32,12,,,,,,,2.52,1.99,1.54*05
$GPGSV,3,1,11,10,37,347,,12,26,093,28,15,06,063,19,18,57,189,08*75
$GPGSV,3,2,11,20,62,032,25,23,55,028,22,24,22,034,17,25,36,138,*7C
$GPGSV,3,3,11,29,07,167,07,31,27,221,15,32,28,304,11*4C
$GPGLL,1046.18107,N,10639.56525,E,051154.00,A,A*6D
$GPRMC,051155.00,A,1046.18111,N,10639.56508,E,0.875,,221120,,,A*75
$GPVTG,,T,,M,0.875,N,1.620,K,A*2C
$GPGGA,051155.00,1046.18111,N,10639.56508,E,1,06,1.99,42.2,M,-2.6,M,,*7B
$GPGSA,A,3,24,15,20,23,32,12,,,,,,,2.52,1.99,1.54*05
$GPGSV,3,1,11,10,37,347,,12,26,093,29,15,06,063,19,18,57,189,08*74
$GPGSV,3,2,11,20,62,032,25,23,55,028,21,24,22,034,16,25,36,138,*7E
$GPGSV,3,3,11,29,07,167,07,31,27,221,15,32,28,304,11*4C
$GPGLL,1046.18111,N,10639.56508,E,051155.00,A,A*64
$GPRMC,051156.00,A,1046.18232,N,10639.56561,E,0.911,,221120,,,A*78
$GPVTG,,T,,M,0.911,N,1.687,K,A*22
$GPGGA,051156.00,1046.18232,N,10639.56561,E,1,07,1.24,42.2,M,-2.6,M,,*72
$GPGSA,A,3,24,15,18,20,23,32,12,,,,,,1.98,1.24,1.54*0F
$GPGSV,3,1,11,10,37,347,,12,26,093,28,15,06,063,19,18,57,189,07*7A
$GPGSV,3,2,11,20,62,032,25,23,55,028,21,24,22,034,16,25,36,138,*7E
$GPGSV,3,3,11,29,07,167,07,31,27,221,13,32,28,304,10*4B
$GPGLL,1046.18232,N,10639.56561,E,051156.00,A,A*6A
$GPRMC,051157.00,A,1046.18355,N,10639.56615,E,0.933,,221120,,,A*79
$GPVTG,,T,,M,0.933,N,1.728,K,A*26
$GPGGA,051157.00,1046.18355,N,10639.56615,E,1,07,1.24,41.9,M,-2.6,M,,*7B
$GPGSA,A,3,24,15,18,20,23,32,12,,,,,,1.98,1.24,1.54*0F
$GPGSV,3,1,11,10,37,347,,12,26,093,28,15,06,063,20,18,57,189,07*70
$GPGSV,3,2,11,20,62,032,25,23,55,028,21,24,22,034,15,25,36,138,*7D
$GPGSV,3,3,11,29,07,167,07,31,27,221,13,32,28,304,10*4B
$GPGLL,1046.18355,N,10639.56615,E,051157.00,A,A*6B
$GPRMC,051158.00,A,1046.18570,N,10639.56724,E,1.394,,221120,,,A*72
$GPVTG,,T,,M,1.394,N,2.583,K,A*20
$GPGGA,051158.00,1046.18570,N,10639.56724,E,1,08,0.97,41.7,M,-2.6,M,,*7E
$GPGSA,A,3,24,29,15,18,20,23,32,12,,,,,1.58,0.97,1.24*06
$GPGSV,3,1,11,10,37,347,,12,26,093,28,15,06,063,21,18,57,189,07*71
$GPGSV,3,2,11,20,62,032,24,23,55,028,21,24,22,034,16,25,36,138,*7F
$GPGSV,3,3,11,29,07,167,07,31,27,221,13,32,28,304,10*4B
$GPGLL,1046.18570,N,10639.56724,E,051158.00,A,A*66
$GPRMC,051159.00,A,1046.18721,N,10639.56790,E,1.373,,221120,,,A*73
$GPVTG,,T,,M,1.373,N,2.543,K,A*25
$GPGGA,051159.00,1046.18721,N,10639.56790,E,1,08,0.97,41.6,M,-2.6,M,,*77
$GPGSA,A,3,24,29,15,18,20,23,32,12,,,,,1.58,0.97,1.24*06
$GPGSV,3,1,11,10,37,347,,12,26,093,28,15,06,063,21,18,57,189,07*71
$GPGSV,3,2,11,20,62,032,24,23,55,028,21,24,22,034,17,25,36,138,*7E
$GPGSV,3,3,11,29,07,167,07,31,27,221,13,32,28,304,10*4B
$GPGLL,1046.18721,N,10639.56790,E,051159.00,A,A*6E
$GPRMC,051200.00,A,1046.18862,N,10639.56851,E,1.345,,221120,,,A*73
$GPVTG,,T,,M,1.345,N,2.491,K,A*2E
$GPGGA,051200.00,1046.18862,N,10639.56851,E,1,08,0.97,41.3,M,-2.6,M,,*77
$GPGSA,A,3,24,29,15,18,20,23,32,12,,,,,1.58,0.97,1.24*06
$GPGSV,3,1,11,10,37,347,,12,26,093,28,15,06,063,21,18,57,189,07*71
$GPGSV,3,2,11,20,62,032,24,23,55,028,20,24,22,034,17,25,36,138,*7F
$GPGSV,3,3,11,29,07,167,07,31,27,221,13,32,28,304,10*4B
$GPGLL,1046.18862,N,10639.56851,E,051200.00,A,A*6B
$GPRMC,051201.00,A,1046.18890,N,10639.56860,E,0.528,,221120,,,A*71
$GPVTG,,T,,M,0.528,N,0.977,K,A*25
$GPGGA,051201.00,1046.18890,N,10639.56860,E,1,08,0.97,41.1,M,-2.6,M,,*7B
$GPGSA,A,3,24,29,15,18,20,23,32,12,,,,,1.58,0.97,1.24*06
$GPGSV,3,1,11,10,37,347,,12,26,093,28,15,06,063,21,18,57,189,07*71
$GPGSV,3,2,11,20,62,032,24,23,55,028,19,24,22,034,16,25,36,138,*74
$GPGSV,3,3,11,29,07,167,07,31,27,221,13,32,28,304,10*4B
$GPGLL,1046.18890,N,10639.56860,E,051201.00,A,A*65
$GPRMC,051202.00,A,1046.18937,N,10639.56877,E,0.422,,221120,,,A*73
$GPVTG,,T,,M,0.422,N,0.781,K,A*29
$GPGGA,051202.00,1046.18937,N,10639.56877,E,1,07,1.24,40.7,M,-2.6,M,,*73
$GPGSA,A,3,24,15,18,20,23,32,12,,,,,,1.98,1.24,1.54*0F
$GPGSV,3,1,11,10,37,347,,12,26,093,28,15,06,063,21,18,57,189,07*71
$GPGSV,3,2,11,20,62,032,24,23,55,028,20,24,22,034,16,25,36,138,*7E
$GPGSV,3,3,11,29,07,167,06,31,27,221,13,32,28,304,15*4F
$GPGLL,1046.18937,N,10639.56877,E,051202.00,A,A*6C
$GPRMC,051203.00,A,1046.19021,N,10639.56900,E,0.595,,221120,,,A*71
$GPVTG,,T,,M,0.595,N,1.102,K,A*28
$GPGGA,051203.00,1046.19021,N,10639.56900,E,1,07,1.24,40.2,M,-2.6,M,,*79
$GPGSA,A,3,24,15,18,20,23,32,12,,,,,,1.98,1.24,1.54*0F
$GPGSV,3,1,11,10,37,347,,12,26,093,28,15,06,063,21,18,57,189,07*71
$GPGSV,3,2,11,20,62,032,24,23,55,028,20,24,22,034,16,25,36,138,*7E
$GPGSV,3,3,11,29,07,167,06,31,27,221,13,32,28,304,15*4F
$GPGLL,1046.19021,N,10639.56900,E,051203.00,A,A*63
$GPRMC,051204.00,A,1046.18980,N,10639.56866,E,0.327,,221120,,,A*7B
$GPVTG,,T,,M,0.327,N,0.606,K,A*25
$GPGGA,051204.00,1046.18980,N,10639.56866,E,1,06,1.99,40.0,M,-2.6,M,,*79
$GPGSA,A,3,24,15,20,23,32,12,,,,,,,2.52,1.99,1.54*05
$GPGSV,3,1,11,10,37,347,,12,26,093,27,15,06,063,20,18,57,189,07*7F
$GPGSV,3,2,11,20,62,032,24,23,55,028,20,24,22,034,15,25,36,138,*7D
$GPGSV,3,3,11,29,07,167,06,31,27,221,,32,28,304,15*4D
$GPGLL,1046.18980,N,10639.56866,E,051204.00,A,A*66
$GPRMC,051205.00,A,1046.18947,N,10639.56832,E,0.196,,221120,,,A*78
$GPVTG,,T,,M,0.196,N,0.363,K,A*2B
$GPGGA,051205.00,1046.18947,N,10639.56832,E,1,06,1.99,39.7,M,-2.6,M,,*7B
$GPGSA,A,3,24,15,20,23,32,12,,,,,,,2.52,1.99,1.54*05
$GPGSV,3,1,11,10,37,347,,12,26,093,27,15,06,063,20,18,57,189,07*7F
$GPGSV,3,2,11,20,62,032,24,23,55,028,20,24,22,034,15,25,36,138,*7D
$GPGSV,3,3,11,29,07,167,06,31,27,221,,32,28,304,15*4D
$GPGLL,1046.18947,N,10639.56832,E,051205.00,A,A*6D
$GPRMC,051206.00,A,1046.18929,N,10639.56808,E,0.239,,221120,,,A*7C
$GPVTG,,T,,M,0.239,N,0.442,K,A*29
$GPGGA,051206.00,1046.18929,N,10639.56808,E,1,06,1.99,39.5,M,-2.6,M,,*7B
$GPGSA,A,3,24,15,20,23,32,12,,,,,,,2.52,1.99,1.54*05
$GPGSV,3,1,11,10,37,347,,12,26,093,27,15,05,063,20,18,57,189,07*7C
$GPGSV,3,2,11,20,62,032,24,23,55,028,19,24,22,034,15,25,36,138,*77
$GPGSV,3,3,11,29,07,167,06,31,27,221,,32,28,304,15*4D
$GPGLL,1046.18929,N,10639.56808,E,051206.00,A,A*6F
$GPRMC,051207.00,A,1046.18914,N,10639.56808,E,0.495,,221120,,,A*73
$GPVTG,,T,,M,0.495,N,0.917,K,A*24
$GPGGA,051207.00,1046.18914,N,10639.56808,E,1,06,1.99,39.1,M,-2.6,M,,*70
$GPGSA,A,3,24,15,20,23,32,12,,,,,,,2.52,1.99,1.54*05
$GPGSV,3,1,11,10,37,347,,12,26,093,27,15,05,063,20,18,57,189,07*7C
$GPGSV,3,2,11,20,62,032,24,23,55,028,18,24,22,034,16,25,36,138,*75
$GPGSV,3,3,11,29,07,167,06,31,27,221,,32,28,304,15*4D
$GPGLL,1046.18914,N,10639.56808,E,051207.00,A,A*60
$GPRMC,051208.00,A,1046.18899,N,10639.56802,E,0.433,,221120,,,A*7E
$GPVTG,,T,,M,0.433,N,0.801,K,A*2E
$GPGGA,051208.00,1046.18899,N,10639.56802,E,1,06,1.99,39.0,M,-2.6,M,,*70
$GPGSA,A,3,24,15,20,23,32,12,,,,,,,2.52,1.99,1.54*05
$GPGSV,3,1,11,10,37,347,,12,26,093,27,15,05,063,20,18,57,189,08*73
$GPGSV,3,2,11,20,62,032,24,23,55,028,18,24,22,034,16,25,36,138,*75
$GPGSV,3,3,11,29,07,167,06,31,27,221,,32,28,304,10*48
$GPGLL,1046.18899,N,10639.56802,E,051208.00,A,A*61
$GPRMC,051209.00,A,1046.18876,N,10639.56803,E,0.433,,221120,,,A*7F
$GPVTG,,T,,M,0.433,N,0.801,K,A*2E
$GPGGA,051209.00,1046.18876,N,10639.56803,E,1,06,1.99,38.9,M,-2.6,M,,*79
$GPGSA,A,3,24,15,20,23,32,12,,,,,,,2.52,1.99,1.54*05
$GPGSV,3,1,11,10,37,347,,12,26,093,26,15,05,063,20,18,57,189,08*72
$GPGSV,3,2,11,20,62,032,25,23,55,028,19,24,22,034,15,25,36,138,*76
$GPGSV,3,3,11,29,07,167,06,31,27,221,,32,28,304,10*48
$GPGLL,1046.18876,N,10639.56803,E,051209.00,A,A*60
$GPRMC,051210.00,A,1046.18827,N,10639.56781,E,0.363,,221120,,,A*74
$GPVTG,,T,,M,0.363,N,0.673,K,A*27
$GPGGA,051210.00,1046.18827,N,120,24,22,034,15,25,36,138,*7C
$GPGSV,3,3,11,29,07,167,06,31,27,221,$GPRMC,051211.00,A,1046.18823,N,106$GPRMC,051213.00,A,1046.18789,N,10639.56753,E,0.339,,221120,,,A*7C
$GPVTG21,24,22,034,18,25,36,138,*70
$GPGSV,3,3,11,29,07,167,0$GPRMC,051214.00,A,1046.18721,N,10639.56713,E,0.268,,221120,,,A*78
$GPRMC,051215.00,A,1046.18718,N,10639.56698,E,0.194,,221120,,,A*71
$GPVTG,,T,,M,0.194,N,0.360,K,A*2A
$GPGGA,051215.00,1046.$GPRMC,051216.00,A,1046.18759,N,10639.56723,E,0.169,1216.00,1046.18759,N,10639.56723,E,1,08,1.24,38.8,M,-2.6,M,,*71
$GP$GPRMC,051217.00,A,1046.18827,N,1064,1.54*04
$GPGSV,3,1,11,10,37,347,,12,26,093,28,15,05,063,21,18,57,189,12$GPRMC,051218.00,A,1046.18880,N,10639.56782,E,0.181,,2028,21,24,21,034,16,25,36,138,*7D
$GPGSV,3,3,11,29,07,167,08,31,27,$GPRMC,051219.00,A,1046.18948,N,10639.56804,E,0.314,,221120,,,A*77
$GPRMC,051220.00,A,1046.19012,N,10639.56825,E,0.522,,221120,,,A*7A
$GPVTG,,T,,M,0.522,N,0.967,K,A*2E
$GPGGA$GPRMC,051221.00,A,1046.19079,N,10639.56852,E,0.723,,221120,,,A*75
1221.00,1046.19079,N,10639.56852,E,$GPRMC,051222.00,A,1046.19165,N,10639.56892,E,0.959,,221120,,,A*75
$GPVTG1.54*0F
$GPGSV,3,1,11,10,37,347,,12,26,093,28,15,05,0$GPRMC,051223.00,A,1046.19246,N,10639.56930,E,1.031,,221120,,,A*79
8,21,24,21,034,18,25,36,138,*73
$GPGSV,3,3,11,29,07,167,,31,27,222,$GPRMC,051224.00,A,1046.19328,N,10639.56975,E,0.995,,2211$GPRMC,051225.00,A,1046.19373,N,10639.56991,E,0.674,,221120,,,A*75
$GPVTG,,T,,M,0.674,N,1.249,K,A*28
$GPGGA,051225.00,$GPRMC,051226.00,A,1046.19423,N,1061226.00,1046.19423,N,10639.57044,E,1,07,2.21,37.6,M,-2.6,M,,*72
$GPGSA,A,$GPRMC,051227.00,A,1046.19479,N,10639.57108,E,0.834,,22.28*05
$GPGSV,3,1,11,10,37,347,,12,26,093,29,15,05,063,18,18,57,18$GPRMC,051228.00,A,1046.19467,N,10639.57087,E,0.881,,221120,,,A*71
,24,21,034,18,25,36,138,*70
$GPGSV,3,3,11,29,07,167,,31,$GPRMC,051229.00,A,1046.19439,N,10639.57050,E,0.778,$GPRMC,051230.00,A,1046.19411,N,10639.57016,E,0.562,,221120,,,A*71
1230.00,1046.19411,N,10639.57016,E,$GPRMC,051231.00,A,1046.19391,N,10639.57015,E,0.494,,221120,,,A*74
$GPVTG*00
$GPGSV,3,1,11,10,37,347,,12,26,093,29,15,05,063,1$GPRMC,051232.00,A,1046.19346,N,10639.56995,E,0.220,,221120,,,A*74
4,21,034,19,25,36,138,*71
$GPGSV,3,3,11,29,07,167,,31,27,222,,32,28$GPRMC,051233.00,A,1046.19272,N,10639.56962,E,0.250,,2211051233.00,A,A*60
$GPRMC,051234.00,A,1046.19251,N,10639.56959,E,0.081,,221120,,,A*7C
$GPVTG,,T,,M,0.081,N,0.151,K,A*2F$GPRMC,051235.00,A,1046.19205,N,1061235.00,1046.19205,N,10639.56940,E,1,05,7.79,39.8,M,-2.6,M,,*74
$GPGSA,A,$GPRMC,051236.00,A,1046.19129,N,10639.56894,E,0.579,,221*07
$GPGSV,3,1,11,10,37,347,,12,26,093,28,15,05,063,18,18,57,189,*7$GPRMC,051237.00,A,1046.19101,N,10639.56868,E,0.334,,221120,,,A*77
4,21,034,18,25,36,138,*72
$GPGSV,3,3,11,29,07,167,,31,27$GPRMC,051238.00,A,1046.19042,N,10639.56835,E,0.541,$GPRMC,051239.00,A,1046.19030,N,10639.56830,E,0.341,,221120,,,A*75
$GPVTG,,T,,M,0.341,N,0.632,K,A*22
$GPRMC,051240.00,A,1046.19032,N,10639.56842,E,0.208,,221120,,,A*70
$GPVTG1240.00,1046.19032,N,10639.56842,E,1,05,7.80,41.6,M,-2.6$GPRMC,051241.00,A,1046.18955,N,10639.56746,E,0.547,,221120,,,A*7F
54*06
$GPGSV,3,1,11,10,37,347,,12,26,093,28,15,05,063,21,18,57,189,$GPRMC,051242.00,A,1046.18942,N,10639.56700,E,0.347,,2211,24,21,034,20,25,36,138,*7B
$GPGSV,3,3,11,29,07,167$GPRMC,051243.00,A,1046.18939,N,10639.56708,E,0.236,,221120,,,A*7C
$GPRMC,051244.00,A,1046.18867,N,10639.56619,E,0.630,,221120,,,A*72
$GPVTG,,T,,M,0.630,N,1.166,K,A*26
$GPGGA$GPRMC,051245.00,A,1046.18812,N,10639.56564,E,0.820,,221121245.00,1046.18812,N,10639.56564,E,1,06,2.01,40.6,M,-2.6,M,,*7D
$GP$GPRMC,051246.00,A,1046.18790,N,10639.56556,E,0.707,,221120,,,A*7A
54*06
$GPGSV,3,1,11,10,37,347,,12,26,093,28,15,05,063,19$GPRMC,051247.00,A,1046.18725,N,10639.56468,E,0.865,,24,21,034,19,25,36,138,*75
$GPGSV,3,3,11,29,07,167,,31,27,222,,32,$GPRMC,051248.00,A,1046.18651,N,106$GPRMC,051249.00,A,1046.18635,N,10639.56337,E,1.024,,221120,,,A*7D
$GPVTG,,T,,M,1.024,N,1.896,K,A*22
$GPGGA,051249.00,1046.18635,N$GPRMC,051250.00,A,1046.18621,N,10639.56303,E,0.906,,221120,,,A*7F
1250.00,1046.18621,N,10639.56303,E,1,06,2.01,39.4,M,-2.6,M,,*7C
$GP$GPRMC,051251.00,A,1046.18567,N,10639.56245,E,1.037,,221154*06
$GPGSV,3,1,11,10,37,347,,12,26,093,29,15,05,0$GPRMC,051252.00,A,1046.18541,N,10639.56228,E,0.940,,221120,,,A*72
,24,21,034,19,25,36,138,*73
$GPGSV$GPRMC,051253.00,A,1046.18532,N,10639.56229,E,0.897,,221120,,,A*7D
$GPVTG$GPRMC,051254.00,A,1046.18484,N,10639.56181,E,1.011,,221120,,,A*70
$GPVTG,,T,,M,1.011,N,1.873,K,A*2F
$GPGGA,051254.00,1046.1$GPRMC,051255.00,A,1046.18481,N,10639.56170,E,0.671,,221120,,,A*7B
1255.00,1046.18481,N,10639.56170,E,1,06,2.01,38.6,M,-2.6,$GPRMC,051256.00,A,1046.18454,N,10639.56134,E,0.637,54*06
$GPGSV,3,1,11,10,37,347,,12,26,093,30,15,05,063,24,18,56,189,$GPRMC,051257.00,A,1046.18401,N,106080,E,051257.00,A,A*64
$GPRMC,051258.00,A,1046.18382,N,10639.56078,E,1.137,,221120,,,A*7F
$GPVTG,,T,,M,1.137,N,2.105,K,A*21
$GPGG$GPRMC,051259.00,A,1046.18422,N,10639.56104,E,0.531,,221120,,,A*7A
1259.00,1046.18422,N,10639.56104,E,1,07,1.24,38.4,M,-2.6,M,,*75
$GP$GPRMC,051300.00,A,1046.18402,N,10639.56102,E,0.400,,22111.54*00
$GPGSV,3,1,11,10,37,347,,12,26,093,29,15,05$GPRMC,051301.00,A,1046.18445,N,10639.56149,E,0.161,,221120,,,A*7F
9,21,24,21,034,19,25,36,138,*70
$G$GPRMC,051302.00,A,1046.18432,N,10639.56179,E,0.340,,221120,,,A*7E
$GPVTG$GPRMC,051303.00,A,1046.18413,N,10639.56170,E,0.360,,221120,,,A*77
$GPVTG,,T,,M,0.360,N,0.666,K,A*20
$GPGGA,051303.00,1046$GPRMC,051304.00,A,1046.18401,N,10639.56169,E,0.301,,221120,,,A*7C
1304.00,1046.18401,N,10639.56169,E,1,07,1.24,38.8,M,-2.6,$GPRMC,051305.00,A,1046.18407,N,10639.56168,E,0.305,1.54*00
$GPGSV,3,1,11,10,37,347,,12,26,093,30,15,05,063,23,18,56,18$GPRMC,051306.00,A,1046.18419,N,1069,21,24,21,034,20,25,37,137,*74
$GPGSV,3,3,11,29,06,167,,31,27,222,,32,28$GPRMC,051307.00,A,1046.18400,N,10639.56204,E,0.552,,221$GPRMC,051308.00,A,1046.18369,N,10639.56158,E,0.190,,221120,,,A*71
$GPVTG,,T,,M,0.190,N,0.352,K,A*2F
$GPGGA,051308.00,1046.18369,N,106$GPRMC,0513,A*7A
1.54*00
$GPGSV,3,1,11,10,37,347,15$GPRMC,051311.00,A,1046.18340,N,10639.56126,E,0.314,,221120,,,A*75
$GPVTG029,21,24,21,034,19,25,37,137,*7F
$GPGSV,3,3,11,29,06$GPRMC,051312.00,A,1046.18307,N,10639.56083,E,0.049,,221120,,,A*70
$GPRMC,051313.00,A,1046.18297,N,10639.56075,E,0.095,,221120,,,A*71
$GPVTG,,T,,M,0.095,N,0.175,K,A*2C
$GPGGA,051313.00,104$GPRMC,051314.00,A,1046.18248,N,10639.55985,E,0.558,1314.00,1046.18248,N,10639.55985,E,1,07,1.24,36.9,M,-2.6,M,,*76
$GP$GPRMC,051315.00,A,1046.18253,N,1061.54*00
$GPGSV,3,1,11,10,37,347,14,12,26,093,29,15,05,063,21,18,56,189,14$GPRMC,051316.00,A,1046.18236,N,10639.55937,E,0.472,,2029,21,24,21,034,20,25,37,137,*75
$GPGSV,3,3,11,29,06,167,,31,28,22$GPRMC,051317.00,A,1046.18229,N,10639.55900,E,0.605,,221120,,,A*77
$GPRMC,051318.00,A,1046.18231,N,10639.55892,E,0.464,,221120,,,A*7E
$GPVTG,,T,,M,0.464,N,0.860,K,A*2B
$GPG$GPRMC,051319.00,A,1046.18226,N,10639.55883,E,0.426,,221120,,,A*7F
1319.00,1046.18226,N,10639.55883,E,$GPRMC,051320.00,A,1046.18192,N,10639.55862,E,0.690,,221120,,,A*79
$GPVTG1.54*00
$GPGSV,3,1,11,10,37,347,15,12,26,093,29,15,05$GPRMC,051321.00,A,1046.18162,N,10639.55832,E,0.798,,221120,,,A*7B
029,21,24,21,034,21,25,37,137,*74
$GPGSV,3,3,11,29,06,167,,31,28,22$GPRMC,051322.00,A,1046.18154,N,10639
$GP$GPRMC,051324.00,A,1046.18126,N,1061.54*00
$GPGSV,3,1,11,10,37,347,17,12,26,093,28,15,05,063,21,18,56,189,13$GPRMC,051325.00,A,1046.18098,N,10639.55841,E,0.568,,2029,20,24,21,034,22,25,37,137,*76
$GPGSV,3,3,11,29,06,167,,31,28,22$GPRMC,051326.00,A,1046.18096,N,10639.55835,E,0.205,,221120,,,A*70
55835,E,051326.00,A,A*6C
$GPRMC,051327.00,A,1046.18081,N,10639.55812,E,0.400,,221120,,,A*71
$GPVTG,,T,,M,$GPRMC,051328.00,A,1046.18072,N,10639.55796,E,0.426,,221120,,,A*75
1328.00,1046.18072,N,10639.55796,E,$GPRMC,051329.00,A,1046.18085,N,10639.55797,E,0.258,,221120,,,A*72
$GPVTG54*02
$GPGSV,3,1,11,10,37,347,18,12,26,093,28,15,05,0$GPRMC,051330.00,A,1046.18101,N,10639.55819,E,0.042,,221120,,,A*77
9,20,24,21,034,22,25,37,137,*75
$GPGSV,3,3,11,29,06,167,,31,28,222,$GPRMC,051331.00,A,1046.18080,N,10639.55789,E,0.260,,2255789,E,051331.00,A,A*65
$GPRMC,051332.00,A,1046.18077,N,10639.55783,E,0.149,,221120,,,A*73
$GPVTG,,T,,M,0.149,N,0.275$GPRMC,051333.00,A,1046.18083,N,1061333.00,1046.18083,N,10639.55791,E,1,06,2.03,32.8,M,-2.6,M,,*7F
$GPGSA,A,$GPRMC,051334.00,A,1046.18055,N,10639.55756,E,0.184,,21.53*07
$GPGSV,3,1,11,10,38,347,17,12,26,093,29,15,05,063,20,18,56,$GPRMC,051335.00,A,1046.18074,N,10639.55769,E,0.269,,221120,,,A*72
029,21,24,21,034,22,25,37,137,*74
$GPGSV,3,3,11,29,06,$GPRMC,051336.00,A,1046.18058,N,10639.55757,E,0.217,$GPRMC,051337.00,A,1046.18049,N,10639.55756,E,0.056,,221120,,,A*7C
$GPVTG,,T,,M,0.056,N,0.104,K,A*25
$GPRMC,051338.00,A,1046.18055,N,10639.55753,E,0.053,,221120,,,1338.00,1046.18055,N,10639.55753,E,1,06,2.04,32.4,M,-2.6,M,,*7A
$GPGSA,A,3,24,15,20,23,32,12,,,,,,,2.55,2.04,1.53*02
$GPGSV,3,1,11,10,38,3$GPRMC,051339.00,A,1046.18043,N,1063953*02
$GPGSV,3,1,11,10,38,347,18,12,26,092,28,15,05,064,21,18,56,189,*74
$GPGSV,3,2,11,20,6$GPRMC,051340.00,A,1046.18061,N,10639.55741,E,0.209,,221120,,,A*78
19,24,21,034,22,25,37,137,*7C
$GPG$GPRMC,051341.00,A,1046.18059,N,10639.55733,E,0.185,,221120,,,A*70
$GPVTG,,T,,M,0.185,N,0.343,K,A*2B
$GPGGA,051341.00,1046.18059,N,10639.$GPRMC,051342.00,A,1046.18064,N,10639.55750,E,0.064,,221120,,,A*76
$GPVTG,,T,,M,0.064,N,0.118,K,A*29
$GPGGA,051342.00,1046.18064,N,10639.55750,E,1,06,2.04,31.5,M,-2.6,M,,*74
$GPGSA,A,3,24,15,20,23,3$GPRMC,051343.00,A,1046.18057,N,10639.55744,E,0.171,,221120,,,A*77
$GPVTG,,T,,M,0.171,N,0.317,K,A*211343.00,1046.18057,N,10639.55744,E,1,06,2.04,31.2,M,-2.6,M,,*77
$GP$GPRMC,051344.00,A,1046.18049,N,10653*02
$GPGSV,3,1,11,10,38,347,18,12,26,092,29,15,05,064,22,18,56,188,*77$GPRMC,051345.00,A,1046.18037,N,10639.55713,E,0.238,,221120,,,A*7B
$GPVTG,,T,,M,0.238,N,0.441,K,A*2B
20,24,21,034,21$GPRMC,051346.00,A,1046.18033,N,10639.55698,E,0.251,,221120,,,A*71
$GPVTG,,T,,M,0.251,N,0.465,K,A*22
$GPGGA,051$GPRMC,051347.00,A,1046.18011,N,10639.55676,E,0.347,,221120,,,A*76
$GPVTG,,T,,M,0.347,N,0.643,K,A*22
$GPGGA,051347.00,1046.18011,N,10639.55676,E,1,06,2.04,29.9,M,-2.6,M,,*73
$GPGSA,A,3,24,15$GPRMC,051348.00,A,1046.18026,N,1061348.00,1046.18026,N,10639.55676,E,1,06,2.04,29.4,M,-2.6,M,,*75
$GPGSA,A,3,24,15,20,23,32,12,,,,,,,2.55,2.04,1.53*02$GPRMC,051349.00,A,1046.18005,N,10639.55658,E,0.508,,221120,,,A*7C
$GPV*07
$GPGSV,3,1,11,10,38,347,17,12,26,092,29,15,05,064,21,18,56,188,*7B
$GPGSV,3,2,11,20,63,034,25,23,56,030,22,24,21,034,22,2$GPRMC,051350.00,A,1046.18049,24,21,034,21,25,37,137,*7A
$GPGSV,3,3,11,29,06,167,,31,28,222,,32,28,305,*43
$GPGLL,1046.18049,N,10639.55683,E,051350.00,A,A*6C
$GPRMC,051351.00,A,1046.18100,N,10639.55702,E,0.563,,221120,,,A*72
$GPVTG,,T,,M,0.563,N,1.043,K,A*25
$GPGGA,051351.00$GPRMC,05131352.00,1046.18069,N,10639.55687,E,1,05,7.91,28.0,M,-2.6,M,,*74
$GPGSA,A,3,24,15,20,23,12,,,,,,,,9.62,7.91,5.47*04
$GPRMC,051353.00,A,1046.180*04
$GPGSV,3,1,11,10,38,347,16,12,26,092,27,15,05,064,21,18,56,188,*74
$GPGSV,3,2,11,20,63,034,24,23,56,030,18,24,$GPRMC,051354.00,A,1046.18076,N,10639.55705,E,0.095,,221120,,,A*7C
,24,21,034,21,25,37,137,*7A
$GPGSV,3,3,11,29,06,166,,31,28,222,,32,28,305,*42
$GPGLL,1046.18076,N,10639.55705,E,051354.00,A,A*6B
$GPRMC,051355.00,A,1046.18061,N,10639.55702,E,0.203,,221120,,,A*71
$GPVE,051355.00,A,A*6B
$GPRMC,051356.00,A,1046.18088,N,10639.55718,E,0.173,,221120,,,A*7A
$GPVTG,,T,,M,0.173,N,0.321,K,A*26
$GPGGA,051356.00,1046.18088,N,10639$GPRMC,051357.00,A,1046.18094,N,10639.55726,E,0.156,,221120,,,A*7C
$GPVTG,,T,,M,0.156,N,0.289,K,A*22
$GPGGA,051357.00,1046.18094,N,10639.55726,E,1,05,7.92,26.7,M,-2.6,M,,*73
$GPGSA,A$GPRMC,051358.00,A,1046.18128,N,10639.55742,E,0.433,,221120,,,A*71
*06
$GPGSV,3,1,11,10,38,347,15,12,26,092,27,15,05,064,20,18,56,188,*76
$GPGSV,3,2,11,20,63,034,24,23,56,030,18,24,21,034,21,25,3$GPRMC,,24,21,034,21,25,37,137,*71
$GPGSV,3,3,11,29,06,166,,31,28,222,,32,28,306,05*44
$GPGLL,1046.18174,N,10639.55775,E,051359.00,A,A*62
$GPRMC,051400.00,A,1046.18165,N,10639.55785,E,0.390,,221120,,,A*77
$GPVTG,,T,,M,0.390,N,0.722,K,A*2E
$5,E,051400.00,A,A*66
$GPRMC,051401.00,A,1046.18200,N,10639.55802,E,0.658,,221120,,,A*77
$GPVTG,,T,,M,$GPRMC,051402.00,A,1046.18245,N,10639.55821,E,0.955,,221120,,,A*76
$GPVTG,,T,,M,0.955,N,1.769,K,A*23
$GPGGA,051402.00,1046.18245,N,10639.55821,E,1,05,7.93,25.3,M,-2.6,M,,*74
$GPGSA,A,3,24,15,20,23,$GPRMC,53*00
$GPGSV,3,1,11,10,38,347,18,12,26,092,28,15,05,064,22,18,56,188,10*77
$GPGSV,3,2,11,20,63,034,25,23,56,030,21,24,21,034,23,2$GPRMC,051404.00,A,1046.18285,N,10639.55965,E,0.520,,221120,,,A*73
$GPVTG,,T,,M,0.520,N,0.963,K,A*28
$GPGGA,051404.00,1046.18285,N,10639.5590,21,24,21,034,23,25,37,137,*7B
$G$GPRMC,051405.00,A,1046.18434,N,10639.56133,E,1.265,,221120,,,A*71
$GPVTG,,T,,M,1.265,N,2.342,K,$GPRMC,051406.00,A,1046.18461,N,10639.56163,E,1.144,,221120,,,A*77
$GPVTG,,T,,M,1.144,N,2.119,K,A*28
$GPGGA,051406.00,1046.18461,N$GPRMC,051407.00,A,1046.18409,N,10639.56128,E,0.570,,221120,,,A*75
$GPVTG,,T,,M,0.570,N,1.056,K,A*23
$GPGGA,051407.00,1046.18409,N,10639.561$GPRMC,051408.00,A,1046.18417,N,10639.56137,E,0.676,,221120,,,A*7E
$GPVTG1.53*07
$GPGSV,3,1,11,10,38,347,16,12,26,092,29,15,05,064,20,18,56,188,12$GPRMC,051409.00,A,1046.18392,N,106030,20,24,21,034,25,25,37,137,*7F
$GPGSV,3,3,11,29,06,166,,31,28,222,,32,28,306,14*44
$GP$GPRMC,051410.00,A,1046.18419,N,10639.56129,E,0.574,,221120,,,A*77
$GPVTG,,T,,M,0.574,N,1.063,K,A*21
$GPGGA,051410$GPRMC,051411.00,A,1046.18386,N,10639.56115,E,0.140,,221120,,,A*7B
$GPVTG,,T,,M,0.140,N,0.259,K,A*28
$GPGGA,051411.00,1046.18386,N,10639.56115,E,1,07,1.24,26.7,M,-2.6,M,,*7A
$GPGSA,A,3,$GPRMC,051412.00,A,1046.18391,N,1061412.00,1046.18391,N,10639.56160,E,1,07,1.24,27.2,M,-2.6,M,,*79
$GPGSA,A$GPRMC,051413.00,A,1046.18367,N,10639.56136,E,0.264,,221120,,,A*71.53*07
$GPGSV,3,1,11,10,38,347,17,12,26,092,29,15,05,064,19,18,56,1$GPRMC,051414.00,A,1046.18374,N,10639.56172,E,0.030,,221120,,,A*74
$GPVTG,,T,,M,0.030,N,0.055,K,A*20
$GPGGA,0030,21,24,21,034,25,25,37,137,*7E$GPRMC,051415.00,A,1046.18360,N,10639.56197,E,0.295,,221120,,,A*76
$G$GPRMC,051416.00,A,1046.18352,N,10639.56197,E,0.082,,221120,,,A*70
$GPVTG1416.00,1046.18352,N,10639.56197,E,$GPRMC,051417.00,A,1046.18330,N,10639.56224,E,0.271,,221120,,,A*70
$GPVTG,,T,,M,0.271,N,1.53*07
$GPGSV,3,1,11,10,38,347,15,12,26,092,29,15,05,064,19,18,56,188,11*72
$GPGSV,3,2,11,20,63,034,24,23,56,030,20$GPRMC,051418.00,A,1046.18304,N,10639.56238,E,0.303,,221120,,,A*71
$GPVTG,,T,,M,0.303,N,0.562,K,A*22
$GPGGA,051418.00,1046.18030,20,24,21,034,25,25,37,137,*7F
$GPGSV,3,3,11,29,06,166,,31,28,222,,32,28,306,17*47
$GPGLL,1046.18304,N,10639.56238,E,051418.00,A,A*6A
$GPRMC,051419.00,A,1046.18281,N,10639.56239,E,0.416,,221120,9.56239,E,051419.00,A,A*66
$GPRMC,051420.00,A,1046.18255,N,10639.56248,E,0.458,,221120,,,A*71
$GPVTG,,T,,M,0.458,N,0.849,K,A*2F
$GPGGA,051420.00,1046.18255,N,10639.56248,E,1,07,1.24,28.6,M,-2.6,M,,*73
$GPGSA,A,3,24,$GPRMC,051421.00,A,1046.18233,N,10639.56234,E,0.519,,221120,,,A*7F
$GPVTG,,T,,M,0.519,N,0.9611421.00,1046.18233,N,10639.56234,E,1,06,2$GPRMC,051422.00,A,1046.18228,N,10639.56233,E,0.427,,221120,,,A*7D
$GPVTG,,T,,M,0.427,53*03
$GPGSV,3,1,11,10,38,347,17,12,26,092,29,15,05,064,18,18,56,18$GPRMC,051423.00,A,1046.18233,N,1060,20,24,21,034,25,25,37,137,*7F
$GPGSV,3,3,11,29,06,166,,31,28,222,,32,28,306,14*44
$GPGLL,1046.18233,N,10639.56253,E,051423.00,A,A*6A$GPRMC,051424.00,A,1046.18239,N,10639.56261,E,056261,E,051424.00,A,A*66
$GPRMC,051425.00,A,1046.18245,N,10639.56276,E,0.107,,221120,,,A*77
$GPVTG,,T,,M,0.107,N,0.198,K,A*25
$GPGGA,051425.00,1046.18245,N,10639.56276,E,1,06,2.06,28.9,M,-2.6,M,,*77
$GPGSA,A,3,24,15,20,23,32,12,,,,,,,2.57,2.06,1.53*02$GPRMC,051426.00,A,1046.18198,N,10639.56254,E,0.244,,221120,,,A*73
1426.00,1046.18198,N,10639.56254,E,$GPRMC,051427.00,A,1046.18168,N,10639.56238,E,0.142,,221120,,,A*72
$GPV1.53*07
$GPGSV,3,1,11,10,38,347,16,12,26,092,29,15,05,064,22,18,55,188,10*7B
$GPGSV,3,2,11,20,63,034,$GPRMC,051428.00,20,24,21,034,25,25,37,137,*7E
$GPGSV,3,3,11,29,06,166,,31,28,222,,32,28,306,10*40
$GPGLL,1046.18180,N,10639.5$GPRMC,051429.00,A,1046.18176,N,106$GPRMC,051430.00,A,1046.18178,N,10639.56248,E,0.007,,221120,,,A*72
$GPVTG,,T,,M,0.007,N,0.013,K,A*26
$GPGGA,051430.00,1046.18178,N,10639.56248,E,1,05,7.97,28.2,M,-2.6,M,,*76
$GPGSA,A,3,24,15,20,23,12,,,,,,,,9.67,7.97,5.48*08
$GPGSV,3,1,11,10,38,347$GPRMC,051431.00,A,1046.18177,N,10639.56256,E,0.052,,221120,,,A*73
$GPVTG,,T,,M,0.052,N,0.097,K,A*2A
$GPGGA,051431.00,1046.18177,N,10639.56256,E,1,05,7.97,28.1,M,-2.6,M,,*74
$GPGSA,A,3,24,15,20,23,12,,,,,,,,9.67,7.97,5.48*08
$GPGSV,3,1,11,10,38,347,16$GPRMC,051432.00,A,1046.1853*02
$GPGSV,3,1,11,10,38,347,17,12,26,092,28,15,05,064,22,18,55,18$GPRMC,051433.00,A,1046.18145,N,10639.56217,E,0.150,,221120,,,A*76
$GPVTG,,T,,M,0,20,24,20,034,25,25,37,137,*7E
$GPGSV,3,3,11,29,06,166,,31,28,222,,32,28,306,14*44
$GPGLL,1046.18145$GPRMC,051434$GPRMC,051435.00,A,1046.18147,N,10639.56232,E,0.220,,221120,,,A*71
$GPVTG,,T,,M,0.220,N,0.408,K,A*2F
$GPGGA,051435.00,1046.18147,N,10639.56232,E,1$GPRMC,051436.00,A,1046.18158,N,10639.56237,E,0.351,,221120,,,A*7E
$GPVTG,,T,,M,0.351,N,0.650,K,A*27
$GPGGA,051436.00,1046.18158,N,10639.56237,E,1,07,1.24,27.1,M,-2.6,M,,*7A
$GPGSA,$GPRMC,051437.00,A,1046.18152,N,10639.56217,E,0.425,,221120,,,A*73
$GPVTG,,T,,M,0.425,N,0.787,K,A*28
$GPGGA,051437.00,1046.120*01
$GPGSV,3,1,11,10,38,347,17,12,26,092,27,15,05,064,23,18,55,188,10$GPRMC,051438.00,A,1046.18134,N,10639.56194,E,0.304,,221120,,,A*70
$GPVTG,,T,,M,0.304,N,0.563,K,A*24
$GPGGA,051438.00,1046.18030,18,24,20,034,23,25,37,136,*74
$GPRMC,051439.00,A,1046.18100,N,10639.56145,E,0.232,,221120,,,A*7E
$GPVTG,,T,,M,0.232,N,0.430,K,A*27
$GPGGA,051439.00,1046.18100,N,10639.5$GPRMC,051440.00,A,1046.18081,N,10639.56124,E,0.113,,221120,,,A*7F
$GPVTG,,T,,M,0.113,N,0.210,K,A*23
$GPGGA,051440.00,1046.18081,N,10639.56124,E,1,06,2.07,26.3,$GPRMC,051441.00,A,1046.18049,N,10639.56082,E,0.302,,21441.00,1046.18049,N,10639.56082,E,1,06,2.07,26.3,M,-2.6,M,,*77
$GPRMC,051442.00,A,1046.18051,N,10639.56068,E,0.250,,221120,,,A*7D
53*03
$GPGSV,3,1,11,10,38,347,18,12,26,092,27,15,05,064,24,18,55,188,08*74
$GPGSV,3,$GPRMC,051443.00,A,1046.18066,N6,E,051443.00,A,A*6B
$GPRMC,051444.00,A,1046.18044,N,10639.56055,E,0.374,,221120,,,A*76
$GPVTG,,T,,M,0.37$GPRMC,051445.00,A,1046.18034,N,10639.56054,E,0.365,,221120,,,A*71
$GPVTG,,T,,M,0.365,N,0.677,K,A*25
$1445.00,1046.18034,N,10639.56054,E,$GPRMC,051446.00,A,1046.18020,N,10639.56048,E,0.381,,221120,,,A*70
$GPVTG*08
$GPGSV,3,1,11,10,38,347,17,12,26,092,27,15,05,064,22,18,55,188,06*73
$GPGSV,3,2,11,20,$GPRMC,051447.00,A,1046.18013,N,10639.56049,E,0.291,,221120,,,A*70
$GPVTG,,T,,M,0.291,N,0.539,K,A18,24,20,034,22,25,37,136,*75
$GPGSV,3,3,11,$GPRMC,051448.00,A,1046.18041,N,10639.56092,E,0.178,,221120,,,A*7A
$GPVTG,,T,,M,0.178,N,0.329,K,A*25
$GPGGA,051448.00,1046.18041,N,10092,E,051448.00,A,A*6F
$GPRMC,051449.00,A,1046.18037,N,10639.56109,E,0.195,,221120,,,A*7A
$GPVTG,,T,,M,0.195,N,0.361$GPRMC,051450.00,A,1046.18039,N,1061450.00,1046.18039,N,10639.56083,E,1,06,2.07,25.6,M,-2.6,M,,*77
$GPGSA,A,3,24$GPRMC,051451.00,A,1046.18064,N,10653*0C
$GPGSV,3,1,11,10,38,347,17,12,26,092,27,15,05,064,21,18,55,188,07*7$GPRMC,051452.00,A,1046.18054,N,10639.56075,E,0.187,,221120,,,A*7C
$GPVTG,,T,,M,0.187,N,0.346,K,A*2C
$GPGGA,05145217,24,20,034,22,25,37,136,*78
$GPGSV,3,3,11,29,06,166,,31,28,222,,32,28,306,10*40
$GPGLL,1046.18054,N,10639.56075,E,05$GPRMC,05$GPRMC,051454.00,A,1046.18076,N,10639.56051,E,0.408,,221120,,,A*7E
$GPVTG,,T,,M,0.408,N,0.755,K,A*28
$GPGGA,051454.00,1046.18076,N,10639.56051,E,1,06,2.07,24.2,M,-2.6,M,,*72
$GP$GPRMC,051455.00,A,1046.18048,N,10639.56020,E,0.5321455.00,1046.18048,N,10639.56020,E,1,06,2.07,24.2,M,$GPRMC,051456.00,A,1046.18044,N,10639.56040,E,0.376,,221120,,,A*73
53*0C
$GPGSV,3,1,11,10,38,347,18,1$GPRMC,051457.00,A,1046.18029,N,10639.55990,E,0.296,,221120,,,A*71
$GPVTG,,T,,M,0.296,N,0.516,24,20,034,22,25,37,136,*79
$GPGSV,3,3,11,29,06,1$GPRMC,051458.00,A,1046.18050,N,$GPRMC,051459.00,A,1046.18071,N,10639.56025,E,0.210,,221120,,,A*78
$GPVTG,,T,,M,0.210,N,0.389,K,A*22
$GPGGA,051459.00,1046.18071,N,10639.56025,E,1,06,2.08,23.4,M,-2.6,M,,*75
$G$GPRMC,051500.00,A,1046.180841500.00,1046.18084,N,10639.56031,E,1,06,2.08,23.4,M$GPRMC,051501.00,A,1046.18065,N,10639.55998,E,0.310,53*03
$GPGSV,3,1,11,10,38,347,19,12,26,092,27,15,05,064,15,18,55,18$GPRMC,051502.00,A,1046.16,24,20,034,22,25,37,136,*79
$GPGSV,3,3,11,29,06,166,,31,28,222,,3$GPRMC,051503.00,A,1046.18005,N,106$GPRMC,051504.00,A,1046.17999,N,10639.55940,E,0.507,,221120,,,A*79
$GPVTG,,T,,M,0.507,N,0.940,K,A*2C
$GPGGA,051504.00,1046.17999,N,10639$GPRMC,051505.00,A,1046.18005,N,10639.55952,E,0.349,,221120,,,A*74
$GPVTG1505.00,1046.18005,N,10639.55952,E,1,06,2.08,22.4,M,-2.6,M,,*75
$GPGSA,A,3,$GPRM53*03
$GPGSV,3,1,11,10,38,348,20,12,26,092,27,15,05,064,17,18,55,18$GPRMC,051507.00,A,1046.17972,N,10639.55917,E,0.247,,221120,,,A*7E
$GPVTG,,T,,M,0.247,N,0.4519,24,20,034,21,25,37,136,*77
$GPGSV,3,3,11,29,06,16$GPRMC,051508.00,A,1046.17919,N,10639.55858,E,0.646,$GPRMC,051509.00,A,1046.17920,N,10639.55849,E,0.416,,221120,,,A*7F
$GPVTG,,T,,M,0.416,N,0.771,K,A*21
$GPRMC,051510.00,A,1046*0C
$GPGSV,3,1,11,10,38,348,20,12,26,091,26,15,05,064,20,18,55,188,$GPRMC,051511.00,A,1046.17930,N,10639.55840,E,0.335,,221120,,,A*78
$GPVTG,,T,,M,20,24,20,034,22,25,37,136,*7E
$GPG$GPRMC,051512.00,A,1046.17939,N,10639.55837,E,0.322,,221120,,,A*74
$GPVTG$GPRMC,051513.00,A,1046.17890,N,10639.55765,E,0.665,,221120,,,A*79
$GPVTG,,T,,M,0.665,N,1.232,K,A*24
$GPG$GPRMC,051514.00,A,1046.17837,N,10639.55687,E,0.972,,221120,,,A*77
$GPVTG,,T,,M,0.972,N,1.801,K,A*27
$GPGGA,051514.00,1046.17837,N,10639.55687,E,1,05,8.02,$GPRMC,051515.00,A,1046.17813,N,10639.55665,E,1.016,,221120,,,A*76
$GPV*0E
$GPGSV,3,1,11,10,38,348,20,12,26,091,26,15,05,064,21,18,55,188,*7$GPRMC,051516.00,A,1046.17790,N,10639.55648,E,0.991,,221120,,,A*79
$GPVTG,,T,,M,0.991,N,1.836,K,,24,20,034,21,25,37,136,*7A
$GPGSV$GPRMC,051517.00,A,1046.17794,N,10639.55620,E,0.809,,221120,,,A*72
$GPVTG,,T,,M,0.809,N,1.499,K,$GPRMC,051518.00,A,1046.17804,N,10639.55596,E,0.945,,221120,,,A*7C
$GPVTG,,T,,M,0.945,N,1.750,K,A*28
$GPGGA,051518.00,1046.17804,N,10639.555$GPRMC,051519.01519.00,1046.17802,N,10639.55571,E,1,05,8.03,21.1,M,-2.6,M,,*71
$GPGSA,A,3,24,15,20,23,12,,,,,,,,9.72,8.03,5.49*0F
$GPGSV,3,1,11,10,3$GPRMC,051520.00,A,1046.17830,N,10639.55571,E,0.556,,*0E
$GPGSV,3,1,11,10,38,348,19,12,26,091,25,15,05,064,22,18,55,188,*75$GPRMC,051521.00,A,1046.17844,N,106,24,20,034,21,25,37,136,*7B
$GPGSV,3,3,11,29,06,166,,31,28,222,,32,28,306,*41
$$GPRMC,051522.00,A,1046.17811,N,106$GPRMC,051523.00,A,1046.17808,N,10639.55657,E,0.714,,221120,,,A*7C
$GPVTG,,T,,M,0.714,N,1.323,K,A*22
$GPGGA,051523.00,1046.17808,N,10639.55657,E,1,05,8.03,20.6,M,-2.6,M,,*73
$GPGSA,A$GPRMC,051524.00,A,1046.17813,N,10639.55626,E,0.572,,221120,,,A*75
$GPVTG,,T,,M,01524.00,1046.17813,N,10639.55626,E,1,05,8.04,20.5,M,-2.6,M,,*7C
$GPGSA,A,3,24,15,20,23,12,,,,,,,,9.73,8.04,5.49*09
$GPGSV,3,1,$GPRMC,051525.00,A,1046.17826,N,106*09
$GPGSV,3,1,11,10,38,348,19,12,26,091,27,15,05,064,25,18,55,188,*70
$GPGSV,3,2,11,20,63,035,20,23,56,031$GPRMC,051526.00,A,1046.17794,N,10639.55628,E,0.700,,221120,,,A*7E
$G,24,20,034,22,25,37,136,*77
$GPGSV,3,3,11,29,06,166,,31,28,223,,32,28,306,*40
$GPGLL,1046.17794,N,10639.556$GPRMC,051527.00,A,1046.17779,$GPRMC,051528.00,A,1046.17805,N,10639.55668,E,0.344,,221120,,,A*77
$G1528.00,1046.17805,N,10639.55668,E,1,05,8.04,20.0,M,-2.6,M,,*78
$GPGSA,A,3,24,15,20,23,12,,,,,,,,9.73,8.04$GPRMC,051529.00,A,1046.17782,N,1061529.00,1046.17782,N,10639.55620,E,1,05,8.04,19.7,M,-2.6,M,$GPRMC,051530.00,A,1046.17779,N,10639.55613,E,0.501,,*0E
$GPGSV,3,1,11,10,38,348,20,12,26,091,28,15,05,0$GPRMC,051531.00,A,1046.17813,N,10639.55647,E,0.289,,221120,,,A*75
$GPVTG,,T,,M,0.289,N,24,20,034,23,25,37,136,*7D
$GPGSV,3,3,11,29,06,166,,31,28,223,,32,$GPRMC,051532.00,A,1046.17828,N,106$GPRMC,051533.00,A,1046.17843,N,10639.55663,E,0.270,,221120,,,A*72
$GPVTG1533.00,1046.17843,N,10639.55663,E,1,05,8.05,19.2,M,-2.6,M,,*72
$GPGSA,A,3,24,15,$GPRMC,051534.00,A,1046.17836,N,10639.55639,E,0.341,,221120,,,A*7B
$GPVTG,,T,,M,0.341,N,0.632,K,A*22
$GPGGA,051534.00,1046.17836,N,10*0F
$GPGSV,3,1,11,10,38,3$GPRMC,051535.00,A,1046.17878,N,10639.55700,E,0.143,,221120,,,A*7B
$GPVTG,,T,,M,0.143,N,0.264,K,A*25
$GPGGA,051535.00,1046.1787,24,20,034,24,25,37,136,*79
$GPGSV,3,3,11,29,06,166,$GPRMC,051536.00,A,1046.17890,N,10639.55717,E,0.096,,221120,,,A*71
$GPVTG,,T,,M,0.096,N,0.177,K,A*2D
$GPGGA,051536.00,1046$GPRMC,051537.00,A,1046.17916,N,10639.55757,E,0.170,,221120,,,A*72
$GPVTG,,T,,M,0.170,N,0.315,K,A*22
$GPRMC,051538.00,A,1046.17913,N,10639.55762,E,0.091,,221120,,,A*70
$GPVTG1538.00,1046.17913,N,10639.55762,E,1,04,8.32,19.2,M,-2.6,M,,*78
$GPGSA,A,3,24,20,23,12,,,,,,,,,10.39,8.32,6.22*30
$GPG$GPRMC,051539.00,A,1046.17919,N,10639.55770,E,0.160,,221120,,,A*77
$GPVTG,,T,,M,0.160,N,0.297,K,A*28
31
$GPGSV,3,$GPRMC,051540.00,A,1046.17928,N,10639.55802,E,0.097,,221120,,,A*78
$G24,20,034,24,25,37,136,*73
$GPGSV,3,3,11,29,06,166,,31,28,223,,32,28,30$GPRMC,051541.00,A,1046.17897,N,10639.55767,E,0.009,,$GPRMC,051542.00,A,1046.17911,N,10639.55794,E,0.162,,221120,,,A*7B
$GPVTG,,T,,M,0.162,N,0.299,K,A*24
$GPGGA,051542.00,1046.17911,N,10639.55794,E,1,04,8.33,19.6,M,-$GPRMC,051543.00,A,1046.17907,N,10639.55768,E,0.321,,221120,,,A*7B
$GPVTG1543.00,1046.17907,N,10639.55768,E,1,04,8.33,19.5,M,$GPRMC,051544.00,A,1046.17883,N,10639.55742,E,0.218,,221120,,,A*72
$GPVTG,,T,,M,0.218,N,0.3E
$GPGSV,3,1,11,10,38,348,21,12,2$GPRMC,051545.00,A,1046.17854,N,10639.55713,E,0.087,,221120,,,A*79
$GPVTG24,20,034,24,25,37,136,*71
$GPGSV,3,3,11,29,06,166,$GPRMC,051546.00,A,1046.17823,N,10639.55661,E,0.195,,221120$GPRMC,051547.00,A,1046.17825,N,10639.55663,E,0.123,,221120,,,A*74
$GPVTG,,T,,M,0.123,N,0.228,K,A*2B
$GPGGA,051547.00,1046.17825,N,10639.55663,E,1,04,8.33,19.4,M,-2.6,M,,*73$GPRMC,051548.00,A,1046.17834,N,10639.55694,E,0.126,,1548.00,1046.17834,N,10639.55694,E,1,04,8.34,19.6,M,-2.6,M,,*71
$GPGSA,A,3,24,20,23,12,,,,,,,,,10$GPRMC,051549.00,A,1046.17842,N,10638
$GPGSV,3,1,11,10,38,348,21,12,26,091,26,15,05,064,26,18,55,188,*79
$GPGSV,3,2,11,20,63,035,21,23,56,031,18,2$GPRMC,051550.00,A,1046.17838,N,10624,20,034,24,25,37,136,*71
$GPGSV,3,3,11,29,06,166,,31,28,223,,32,28,306,$GPRMC,051551.00,A,1046.17847,N,10639.55764,E,0.130,,221120,,,A*73
$GPVTG,$GPRMC,051552.00,A,1046.17859,N,10639.55767,E,0.137,,221120,,,A*7$GPRMC,051553.00,A,1046.17848,N,10639.55756,E,0.113,,221120,,,A*7E
$GPVTG,,T,,M,0.113,N,0.209,K,A*2B
$GPGGA,051553.00,1046.17848,N,10639.55756,E,1,04,8.35,19.9,M,-2.6$GPRMC,051554.00,A,1046.17900,N,10639.55810,E,0.443,,2211203D
$GPGSV,3,1,11,10,39,348,20,12,26,091,25,15,05,064,24,18,55,188,*$GPRMC,051555.00,A,1046.17892,N,10624,20,034,23,25,37,136,*76
$GPGSV,3,3,11,29,06,166,,31,28,223,,32,28,306,*40
$GPGLL,1046.17892,N,10639.$GPRMC,051556.00,A,1046.17920,N,106$GPRMC,051557.00,A,1046.17919,N,10639.55886,E,0.258,,221120,,,A*71
$GPVTG,,T,,M,0.258,N,0.479,K,A*26
$GPGGA,051557.00,1046.17919,N,10639.55886,E,1,04,8.35,20.4,M,-2.6,M,,*75
$GPGSA,A,3,24,20,23,12,,,,,,,,,10.43,8.35,6.24*3C
$GPGSV,3,1,11,10,3$GPRMC,3C
$GPGSV,3,1,11,10,39,348,19,12,26,091,25,15,05,065,23,18,55,188,*74$GPRMC,051559.00,A,1046.17953,N,10639.55921,E,0.628,,221120,,,24,20,034,23,25,37,136,*77
$GPGSV,3,3,11,29,06,166,,31,28,223,,32,2$GPRMC,051600.00,A,1046.17975,N,10639.55926,E,0.840,,221120,,,A*72
$GPVTG,,T,,M,0.84,051600.00,A,A*65
$GPRMC,051601.00,A,1046.17975,N,10639.55923,E,0.827,,221120,,,A*77
$GPVTG,,T,,M,0.827,N,1.531,K,A*28
$GPGGA,051601.00,$GPRMC,05161602.00,1046.17995,N,10639.55932,E,1,04,8.36,20.2,M,-2.6,M,,*79
$GPGS$GPRMC,051603.00,A,1046.17951,N,10639.55864,E,0.668,,221120,,,A*74
$GPVTG,,T,,M,0.6638
$GPGSV,3,1,11,10,39,348,19,12,26,091,24,15,05,065,22,18,5$GPRMC,051604.00,A,1046.17967,N,10639.55855,E,0.855,,221120,,,A*74
$GPVTG,,T,,M,024,20,034,22,25,37,136,*7E
$GPGSV,$GPRMC,051605.00,A,1046.17938,N,10639.55809,E,0.619,,221,051605.00,A,A*65
$GPRMC,051606.00,A,1046.17897,N,10639.55782,E,0.273,,221120,,,A*73
$GPVTG,,T,,M,0.273,N,0.505,K,A*25
$GPGGA,051606.00,1046.17897,N,10639.55782,E,1,04,8.37,20.0,M,-2.6,M,,*78$GPRMC,051607.00,A,1046.17899,N,10639.55783,E,0.283,,221607.00,1046.17899,N,10639.55783,E,1,04,8.37,20.0,M,-2.6,M,,*76
$GPGSA,A,3,24,20,23,12,,,,,,,,,10.44,8.37,6.24*39
$GPGSV,3,1,11,10,39$GPRMC,051608.00,A,1046.17904,N,10639
$GPGSV,3,1,11,10,39,348,18,12,26,091,23,$GPRMC,051609.00,A,1046.17904,N,10639.55820,E,0.230,,24,20,034,22,25,37,136,*7E
$GPGSV,3,3,11,29,06,166,,31,28,223,,32,28,306,*40
$GPGLL,1046.17904,N,10639.55820,E,$GPRMC,051610.00,A,1046.17933,N,106$GPRMC,051611.00,A,1046.17949,N,10639.55772,E,0.794,,221120,,,A*74
$GPVTG,,T,,M,0.794,N,1.471,K,A*2A
$GPGGA,051611.00,1046.17949,N,10639.55772,E,1,04,8.38,20.1,M,-2.6,M,,*7D
$GPGSA,A,3,24,20,23,12,,,,,,,,,10.45,8.38,6.25*36
$GPGSV,3,1,11,10,39,$GPRMC,1612.00,1046.17959,N,10639.55801,E,1,04,8.38,20.2,M,-2.6,M,,*77
$GPGSA,A,3,24,20,23,12,,,,,,,,,$GPRMC,051613.00,A,1046.17976,N,10639.55829,E,0.556,,2236
$GPGSV,3,1,11,10,39,348,18,12,26,091,24,15,05,065,23,18,55,188,*74
$GPGSV,3,2,11,20,63,036,18,23,56,031,17,24,20,034$GPRMC,051614.00,A,1046.17924,N,10624,20,034,22,25,37,136,*71
$GPGSV,3,3,11,29,06,166,,31,29,223,,32,28,307,$GPRMC,051615.00,A,1046.17903,N,10639.55833,E,0.265,,221120,,,A*7F
$GPVTG,,T,,M,0.265,N,0.490,K,A*2F
$GPGGA,051615.00,1046.17903,N,10639.55$GPRMC,051616.00,A,1046.17809,N,10639.55737,E,0.625,,221120,,,A*7C
$GPVTG,,T,,M,0.625,N,1.157,K,A*20
$GPGGA,051616.00,1046.17809,N,10639.55737,E,1,04,8.39,21.1,M,-2.6,M,,*7E
$GPGSA,A,3,24,20,23,12,,,,,,,,,10.46,8.39,6.25*34
$GPGSV,3,1,11,10,39,348,18,1$GPRMC,051617.00,A,1046.17842,N,1061617.00,1046.17842,N,10639.55779,E,1,04,8.39,21.2,M,-2.6,M,,*79
$GPGSA,A,3,24,20,23,12,,,,,,,,,10.46,8$GPRMC,051618.00,A,1046.17801,N,10639.55816,E,0.598,,221120,,,A*73
$GP24,20,034,22,25,37,136,$GPRMC,051619.00,A,1046.17811,N,10639.55822,E,0.273,,221120,,,A*76
$GPVTG,,T,,M,0.273,N,0.505,K,A*25
$GPGGA,051619.00,1046.178124,20,034,22,25,37,136,*71
$GPGSV,3,3,11,29,06,166,,31,$GPRMC,051620.00,A,1046.17836,N,10639.55862,E,0.136,,221120,,,A*7F
$GPVTG,,T,,M,0.136,N,0.253,K,A*23
$GPGGA,051620.00,1046.17836,N,10639.558$GPRMC,051621.00,A,1046.17816,N,1061621.00,1046.17816,N,10639.5$GPRMC,051622.00,A,1046.17786,N,10639.55823,E,0.270,,221120,,,A*7D
$GPVTG,,T,,M,0.270,N,0.500,K,A*23
$GPGGA,051622.00,1046.17786,38
$GPGSV,3,1,11,10,39,348,18,12,26,091,23,$GPRMC,051623.00,A,1046.17796,N,10639.55876,E,0.253,,221120,,,A*7C
$GPV24,20,034,21,25,37,136,*72
$GPGSV,3,3,11,29,06,166,,31,29,223,,32,28,307,$GPRMC,051624.00,A,1046.17774,N,106$GPRMC,051625.00,A,1046.17768,N,10639.55805,E,0.122,,221120,,,A*7A
$GPVTG,,T,,M,0.122,N,0.226,K,A*24
$GPG$GPRMC,051626.00,A,1046.17797,N,10639.55833,E,0.228,,221120,,,A*75
$GPVTG,,T,,M,0.228,N,0.422,K,A*2F
$GPGGA,051626.00,1046.17797,$GPRMC,051627.00,A,1046.17783,N,10639.55807,E,0.299,,221120,,,A*7C
$GPVTG,,T,,M,0.299,N,0.555,K,A*24
$GPGGA,051627.00,1046.17783,N,36
$GPGSV,3,1,11,10,39,348,17,12,26,091,22,15,05,065,24,1$GPRMC,051628.00,A,1046.17757,N,10639.55780,E,0.300,,221120,,,A*7B
$GPVTG24,20,034,21,25,37,136,*73
$GPGSV,3,3,11,29,06,166,,31,29,223,,32,28,307,*40
$GPGLL,1046.17757,$GPRMC,051629.00,A,1046.17792,N,106$GPRMC,051630.00,A,1046.17874,N,10639.55887,E,0.721,,221120,,,A*73
$GPVTG,,T,,M,0.721,N,1.336,K,A*20
$GPGGA,051630.00,1046.17874,N,10639.55887,E,1,04,8.41,24.1,M,-2.6,M,$GPRMC,051631.00,A,1046.17887,N,10639.55807,E,1.184,,221120,,,A*7E
$GPVTG,,1631.00,1046.17887,N,10639.55807,E,1,04,8.41,24.4,M,-2.6,M,,*7E
$GPGSA,A,3,24,20,23,12,,,,,,,,,10.49,8.41,6.26*37
$GPGSV,3,1,11,$GPRMC,051632.00,A,1046.17944,N,10639.55948,E,0.84434
$GPGSV,3,1,11,10,39,348,18,12,26,091,22,15,05,065,25,18,55,188,*74
$GPGSV,3,2,11,20,63,036,19,23,56$GPRMC,051633.00,A,1046.17926,N,10624,20,034,20,25,37,136,*73
$GPGSV,3,3,11,29,06,166,,31,29,223,,32,28,307,$GPRMC,051634.00,A,1046.18017,N,10639.56156,E,0.671,,221120,,,A*77
$GPVTG,,$GPRMC,051635.00,A,1046.18097,N,10639.56175,E,1.197,,221120,,,A*71
$GPVTG,,T,,M,1.197,N,2.218,K,A*24
$GPGGA,051635.00,1046.18097,$GPRMC,051636.00,A,1046.18153,N,10639.56231,E,1.2211636.00,1046.18153,N,10639.56231,E,1,04,8.42,25.6,M,-2.6,M,,*7A
$GP$GPRMC,051637.00,A,1046.18211,N,10639.56304,E,1.073,,221120,,,A*70
$GPVTG,,T,,M,1.073,N,1.987,K,A*21
$24,20,034,22,25,37,136,*7A
$GP$GPRMC,051638.00,A,1046.18236,N,10639.56317,E,1.066$GPRMC,051639.00,A,1046.18255,N,10639.56322,E,1.065,,221120,,,A*7D
$GPVTG,,T,,M,1.065,N,1.972,K,A*2C
$GPGGA,051639.00,1046.18255,N,10639.56322,E,1,04,8.43,26.7,M,-2.6,M,,*70
$GPGSA,A,3,24,20,$GPRMC,051640.00,A,1046.18261,N,10639.56376,E,0.850,,221120,,,A*7A
$GPVTG,,T,,M,0.850,N,1.575,K,A*28
$GPGGA,051640.00,1046.18261,N,10639.56376,E,1,04,8.43,27.2,M,-2.6,M,,*7C
$GPGSA,A,3,24,20,23,12,,,,,,,,,10.50,8.43,6.27*3C
$GPGSV,3,1,11,10,39,348,20,12,26,090,23,15,05,065,27,18,55,188,11*7D
$GPGSV,3,2,$GPRMC,051641.00,A,1046.18243,N,10639.56411,E,0.47,24,20,034,21,25,37,136,*7D
$GPGSV,3,3,11,29,06,166,,31,29,223,,32,28,307,*40
$GPGLL,1046.18243,N,10639.56411,E,051641.00,A,A*6B
$GPRMC,051642.00,A,1046.18205,N,10639.56377,E,0.314,,221120,,,A*70
$GPVTG,,T,,M$GPRMC,051643.00,A,1046.18443,N,10639.56858,E,0.784,,221120,,,A*7E
$GPVTG,,T,,M,0.784,N,1.452,K,A*2A
$GPGGA,051643.00,$GPRMC,051644.00,A,1046.18574,N,106391644.00,1046.18574,N,10639.57078,E,1,05,2.18,33.2,M,-2.6,M,,*77
$GPGSA,A,3,24,18,20,23,1$GPRMC,051645.00,A,1046.18655,N,10615,24,20,034,21,25,37,136,*70
$GPGSV,3,3,11,29,06,166,$GPRMC,051646.00,A,1046.18736,N,10639.57321,E,1.021,,221120,,,A*77
$GPVTG,,T,,M,1.021,N,1.8$GPRMC,051647.00,A,1046.18779,N,10639.57421,E,0.866,,221120,,,A*70
$GPVTG,,T,,M,0.866,N,1.603,K,A*2F
$GPGGA,051647.00,1046$GPRMC,051648.00,A,1046.18761,N,1061648.00,1046.18761,N,10639.57550,E,1,05,2.18,38.7,M,-2.6,M,,*7C
$GP$GPRMC,051649.00,A,1046.18749,N,10639.57550,E,0.985,,221120,,,A*76
$GP14,24,20,034,21,25,37,136,*78
$GPGSV,3,3,11,29,06,$GPRMC,051650.00,A,1046.18751,N,10639.57501,E,0.536,,221120,,,A*77
$GPV$GPRMC,051651.00,A,1046.18707,N,10639.5$GPRMC,051652.00,A,1046.18701,N,10639.57459,E,0.431,,221120,,,A*7A
$GPVTG,,T1652.00,1046.18701,N,10639.574$GPRMC,051653.00,A,1046.18686,N,10639.57431,E,0.428,,221120,,,A*73
$GPVTG,,T,,M,0.428,N,0.793,K,A*20
$GPGGA,051653.00,1046.18686,N,10639.57431,E,1,05,2.18,41.5,M,-*07
$GPGSV,3,1,11,10,39,348,21,12,$GPRMC,051654.00,A,1046.18609,N,10639.57432,E,0.898,,221120,,,A*77
$GPVTG,,T,,M,0.898,N,1.663,K,A*28
$GPGGA,051654.00,1046.18609$GPRMC,051655.00,A,1046.18596,N,10639.57403,E,0.758,,221120,,,A*72
$GPVTG,,T,,M,0.758,N,1.404,K,A*28
$GPGGA,051655.00,1046.18596,N,10639.57403,E,1,05,2$GPRMC,051656.00,A,1046.18572,N,10639.57365,E,0.783,,221120,,,A*7A
$GPVTG,,T,,M,0.783,N,1.450,K,A*1656.00,1046.18572,N,10639.57365,E$GPRMC,051657.00,A,1046.18565,N,10639.57339,E,0.588,,221120,,,A*7D
$GPVTG,,T,,M,0.588,N,1.089,K,A*26
$GPGGA,051657.00,1046.18565,N,10639.57339,E,1,0513,24,19,034,20,25,38,135,*7A
$GPG$GPRMC,051658.00,A,1046.18515,N,10639.57348,E,0.888,,221120,,,A*7E
$GPVTG,,T,,M,0.888,N,1.644,K,A*2C
$GPGGA,051658.00,1046.18515,N,10639.57348,E,1,05,2.18,40.2,M,-2.6,M,,*79
$GPGSA,A,3,24348,E,051658.00,A,A*6D
$GPRMC,051659.00,A,1046.18520,N,10639.57301,E,0.592,,221120,,,A*72
$GPVTG,,T,,M,0.592,N,1.096,K,A*23
$GPGGA,051659$GPRMC,051700.00,A,1046.18503,N,10639.57242,E,0.515,,221120,,,A*77
$GPVTG,,T,,M,0.515,N,0.953,K,A*2D
$1700.00,1046.18503,N,10639.57242,E,1,05,2.18,39.2,M,-2.6,M,,*77
$GPGSA,A,3,24,18,20,23,12,,,,,,,,3.43,2.18,2.65*0$GPRMC,051701.00,A,1046.18456,N,10639.57224,E,0.794,,221120,,,A*7C
$GPVTG,,T,,M,0.794,N,1.471,K,A*2A
$GPGGA,051701.00,1046.18456,N,10639.5*03
$GPGSV,3,1,11,10,39,348,20,12,$GPRMC,051702.00,A,1046.18416,N,10639.57162,E,0.950,,221120,,,A*7C
$GPVTG,,T,,M,0.950,N,1.759,K,A*25
$GPGGA,051702.00,1046.184$GPRMC,051703.00,A,1046.18421,N,10639.57107,E,0.471,,221120,,,A*74
$GPVTG,,T,,M,0.471,N,0.872,K,A*2C
$GPGGA,051703.00,1046.18421,N,10639.57107,E,1,04,2.23,37.6,M,-2.6,M,,*74
$$GPRMC,051704.00,A,1046.18434,N,10639.57013,E,0.507,,221120,,,A*73
$GPVTG,,T,,M,0.507,N,0.939,K,A*22
$GPGGA,051704.00,1046.18434,N,10639.57013,E,1,04,2.23,37.0,M,$GPRMC,051705.00,A,1046.18391,N,10639.56974,E,0.531,,221120,,,A*76
$GPVTG3
$GPGSV,3,1,11,10,39,348,18,12,26,090,23,15,05,06$GPRMC,051706.00,A,1046.18389E,051706.00,A,A*65
$GPRMC,051707.00,A,1046.18366,N,10639.56868,E,0.371,,221120,,,A*72
$GPVTG,,T,,M,0.371,N,0.688,K,A*20
$GPGGA,051707.00,1046.18366,N,10639.56868,E,1,04,2.23,35.2,M,-2.6,M,,*73
$GPGSA,A,3,24,18,20,12,,,,,,,,,3.60,2.23,2.83*03
$GPGSV,3,1,11,10,$GPRMC,051708.00,A,1046.18370,N,10631708.00,1046.18370,N,10639.56782,E,1,04,2.23,34.6,M,-2.6,M,,*75
$GP$GPRMC,051709.00,A,1046.18344,N,1062
$GPGSV,3,1,11,10,39,348,20,12,26,090,22,15,05,065,28,18,54,188,12*71
$GPGSV,3,2,11,20,64,$GPRMC,051710.00,A,1046.18325,N,10639.56658,E,0.400,,221120,,,A*7F
$GPVTE,051710.00,A,A*60
$GPRMC,051711.00,A,1046.18348,N,10639.56539,E,0.958,,221120,,,A*71
$GPVTG,,T,,M,0.958,N,1.774,K,A*22
$GPGGA,051711.00,1046.1$GPRMC,051712.00,A,1046.18358,N,10639.56481712.00,1046.18358,N,10639.56481,E,1,04,2.23,32.7,M,-2.6,M,,*73
$GPGSA,A,3,24,18,$GPRMC,051713.00,A,1046.18335,N,10639.56426,E,1.056,,221120,,,A*70
8
$GPGSV,3,1,11,10,39,348,20,12,26$GPRMC,051714.00,A,1046.18273,N,10639.56349,E,1.004,,221120,,,A*7D
$GPVTG,,T,,M,1.004,N,1.859,K,A*23
$GPGGA,051714.00,1046.18273,N,10639.56349,E,1,04,2.23,31.9,M,-2.6,M,,*73
$GPGSA,A,3,24,1E,051714.00,A,A*63
$GPRMC,051715.00,A,1046.18212,N,10639.56253,E,1.215,,221120,,,A*73
$GPVTG,,T,,M,1.215,N,$GPRMC,051716.00,A,1046.18089,N,10639.56232,E,1.246,,221120,,,A*71
$GPVTG,,T,,M,1.246,N,2.308,K,A*2B
$GPGGA,051716.00,1046.18089,N,10639.56232,E,1,04,2.23,31.0,M,-2.6,M,,$GPRMC,051717.00,A,1046.18018,N,10639.56168,E,1.300,,221120,,,A*77
$GPVTG,,T,,M,1.300,N,2.409,K,A*2E
$GPGGA,051717.00,1046.18018,N,10638
$GPGSV,3,1,11,10,39,348,21,12,26$GPRMC,051718.00,A,1046.17985,N,10639.56065,E,1.447,,221120,,,A*72
$GPVTG$GPRMC,051719.00,A,1046.17907,N,10639.56051,E,1.316,,221120,,,A*7D
$GPVTG,,T,,M,1.316,N,2.438,K,A*2B
$GPGGA,051719.00,1046.17907,N,10639.5605$GPRMC,051720.00,A,1046.17859,N,10639.55986,E,1.127,,221120,,,A*7D
$GPVTG,,T,,M,1.127,N,21720.00,1046.17859,N,10639.55986,E,1,04,2.23,29.0,M,-2.6,M,,*73
$GP$GPRMC,051721.00,A,1046.17837,N,10639.55879,E,1.257,,221120,,,A*71
$GPVTG,,T,,M,1.257,N,2.327,K,A*26
$GPGGA,05B
$GPGSV,3,1,11,10,39,348,21,12,26,090,21,15,05,065,29,18,54,188,12*72
$GPGSV,3,2,11,20,64,037,17,23,57,032,,24,$GPRMC,051722.00,A,1046.17818,N,106E,051722.00,A,A*69
$GPRMC,051723.00,A,1046.17828,N,10639.55701,E,1.423,,221120,,,A*78
$GPVTG,,T,,M,1.423,N,2.635,K,A*25
$GPGGA,051723.00,1$GPRMC,051724.00,A,1046.17840,N,10639.55628,E,1.666,,221120,,,A*78
$GPVTG1724.00,1046.17840,N,10639.55628,E,1,04,2.23,27.7,M$GPRMC,051725.00,A,1046.17756,N,10639.55550,E,1.622,,221120,,,A*7D
$GPVTG,,T,,M,1.622,N,3.003,K,A*24
$GPGGA,051725.00,1046.1774,19,034,21,25,38,135,*79
$GPGSV,3,3,11,29,06,165,,31,29,223,09,32,28,307,*4A
$GPGLL,1046.17756,N,10639.$GPRMC,051726.00,A,1046.17672,N,10639.55474,E,1.578,,221120,,,A*72
$GPVTG,,T,,M,1.578,N,2.922$GPRMC,051727.00,A,1046.17593,N,10639.55413,E,1.477,,221120,,,A*70
$GPVTG,,T,,M,1.477,N,$GPRMC,051728.00,A,1046.17564,N,10639.55295,E,1.898,,221120,,,A*72
$GPVTG,,T,,M,1.898,N,3.515,K1728.00,1046.17564,N,10639.55295,E,$GPRMC,051729.00,A,1046.17508,N,10639.55203,E,2.153,,221120,,,A*7B
$GPVTG,,T,,M,2.153,N,3.986,K,A*22
$GPGGA,051729.00,1046.17508,N,10639.55203,E,1,04,2.23,26.6,M,-2.6,M4,19,034,21,25,38,135,*76
$GPGSV,3$GPRMC,051730.00,A,1046.17440,N,$GPRMC,051731.00,A,1046.17354,N,10639.55029,E,2.387,,221120,,,A*7C
$GPVTG,,T,,M,2.387,N,4.421,K,A*2E
$GPGGA,051731.00,1046.17354,N,10639.5$GPRMC,051732.00,A,1046.17249,N,10639.54951,E,2.354,,221120,,,A*7B
$GPVTG,,T,,M,2.354,N,4.360,K,A*22
$GPGGA,051732.00,1046.17249,N,10639.54951,E,1,04,2.23,24.8,M,-2.6,M,,*75
$GPGSA,$GPRMC,051733.00,A,1046.17161,N,10639.54842,E,2.638,,221120,,,A*7F
$GPV4,19,034,21,25,38,135,*74
$GPGSV,3$GPRMC,051734.00,A,1046.17083,N,10639.54818,E,2.411,,221120,,,A*73
$GPVTG,,T,,M,2.411,N,4.466,K$GPRMC,051735.00,A,1046.17022,N,10639.54765,E,2.311,,221120,,,A*7B
$$GPRMC,051736.00,A,1046.16962,N,10639.54747,E,2.164,,221120,,,A*74
$GPVTG,,T,,M,2.164,N,4.007,K,A*21
$GPGGA,051736.00,1046.16962,N,10639.54747,E,1,04,2.23$GPRMC,051737.00,A,1046.16907,N,10639.54746,E,1.9534,19,034,21,25,38,135,*74
$GPGSV,3,3,11,29,06,165,,31,29,223,12,32,28,307,*40
$GPGLL,1046.16907,N,10639.54746,E,051737.$GPRMC,051738.00,A,1046.16858,N,106$GPRMC,051739.00,A,1046.16783,N,10639.54834,E,1.575,,221120,,,A*76
$GPVTG,,T,,M,1.575,N,2.917,K,A*28
$GPGGA,051739.00,1046.16783,N,10639.54834,E,1,04,2.23,20.0,M,-2.6,M,,*72
$GPGSA,A,3,24,18,20,12,,,,,,,,,3$GPRMC,051740.00,A,1046.16774,N,10639.54817,E,1.3271740.00,1046.16774,N,10639.54817,E,1,04,2.22,19.4,M,-2.6,M,,*7A
$GPG$GPRMC,051741.00,A,1046.16744,N,10639.54853,E,0.947,,221120,,,A*7F
4,19,034,20,25,38,135,*74
$GPGSV,3,3,11,29,06,165,,31,29,223,10,32,28,307,*42
$GPGLL,1046.167$GPRMC,051742.00,A,1046.16719,N,10639.54859,E,0.905,,221120,,,A*78
$GPVTG,,T,,M,0.905,N,1.676,K,A*29
$GPGGA,0517$GPRMC,051743.00,A,1046.16683,N,10639.54875,E,0.787,,221120,,,A*71
$GPVTG,,T,,M,0.787,N,1.458,K,A*23
$GPGGA,0$GPRMC,051744.00,A,1046.16674,N,10639.54856,E,0.696,,221120,,,A*7E
$GPVTG,,T,,M,0.696,N,1.290,K,A*20
$GPGGA,051744.00,1046.16674,N,10639.54856,E,1,04,2.22,17.3,M,-2.6,M,,*73
$GPGSA,A,3,24,18,20,12,,,,,,,,,3.57,2.$GPRMC,051745.00,A,1046.16605,N,1064,19,034,21,25,38,135,*72
$G$GPRMC,051746.00,A,1046.16640,N,10639.54945,E,0.242,,221120,,,A*75
$GPVTG,,T,,M,0.242,N,0.449,K,A*2E
$GPGGA,051746.00,10$GPRMC,051747.00,A,1046.16588,N,10639.55013,E,0.537,,221120,,,A*7D
$GPVTG,,T,,M,0.537,N,0.994,K,A*26
$GPGGA$GPRMC,051748.00,A,1046.16600,N,10639.55005,E,0.255,,221120,,,A*75
$GPVTG,,T,,M,0.251748.00,1046.16600,N,10639.55005,E,$GPRMC,051749.00,A,1046.16534,N,10639.55010,E,0.642,,221120,,,A*76
$GPVTG,24,19,034,21,25,38,135,*7B
$GPGSV,3,3,11,29,06,16$GPRMC,051750.00,A,1046.16478,N,10639.55016,E,0.867,,221120,,,A*78
$G$GPRMC,051751.00,A,1046.16404,N,10639.55037,E,1.208,,221120,,,A*73
$GPVTG,,T,,M,1.208,N,2.237,K,A*2C
$GPGGA,051751.00,1046.16404,N,10639.55$GPRMC,051752.00,A,1046.16384,N,10639.55048,E,0.994,1752.00,1046.16384,N,10639.55048,E,1,05,2.18,13.5,M,-2.6,M,,*72
$GP$GPRMC,051753.00,A,1046.16419,N,10639.54991,E,0.283,,221120,,,A*7B
$GPVTG,,T,,M*0B
$GPGSV,3,1,11,10,39,348,21,12,$GPRMC,051754.00,A,1046.16358,N,10639.55018,E,0.477,,221120,,,A*7A
$GPVTG,,T,,M,0.477,N,0.883,K,A*24
$GPGGA,051754.0055018,E,051754.00,A,A*65
$GPRMC,051755.00,A,1046.16319,N,10639.55082,E,0.695,,221120,,,A*73
$GPVTG,,T,,M,0.695,N,1.288,K,A*2A
$GPGGA,051755.00,1046.16319,N,10639.55082,E,1,04,2.22$GPRMC,051756.00,A,1046.16431,N,10639.54918,E,0.740,,221120,,,A*7F
$GPVTG,,T,,M,0.740,N,1.31756.00,1046.16431,N,10639.54918,E,$GPRMC,051757.00,A,1046.16450,N,10639.54898,E,0.597,,221120,,,A*78
$GPVTG,,T,,M,0.597,N,1.106,K,A*2E
$GPGGA,051757.00,1
$GPGSV,3,1,11,10,39,348,20,12,27,090,12,15,05,065,27,18,54,187,08*78
$GPRMC,051758.00,A,1046.16480,N,10$GPRMC,051759.00,A,1046.16461,N,10639.54898,E,0.328,,221120,,,A*76
$GPVTG,,T,,M,0.328,N,0.607,K,A*2B
$GPGGA,051759.00,1046.16461,N,10639.54898,E,1,03,2.38,10.3,M,-2.6,M,,*70
$GPGSA,A,3,24,18,12,,,$GPRMC,051800.00,A,1046.16446,N,10639.54906,E,0.077,,221120,,,A*7F
$GPVTG,,T,,M,0.077,N,0.142,K,A*24
$GPG1800.00,1046.16446,N,10639.54906,E,$GPRMC,051801.00,A,1046.16417,N,10639.54947,E,0.431,,221120,,,A*79$GPGSV,3,1,11,10,39,348,20,12,27,090,12,15,05,065,27,18,54,187,08*78
$GPGSV,3,2,11,20,64,038,08,2$GPRMC,051802.00,A,1046.16336,N,106$GPRMC,051803.00,A,1046.16381,N,10639.54946,E,0.378,,221120,,,A*78
$GPVTG,,T,,M,0.378,N,0.700,K,A*28
$GPGGA,051803.00,1046.16381$GPRMC,051804.00,A,1046.16359,N,10639.55007,E,0.382,,221120,,,A*72
$GPVTG,,T,,M,0.382,N,0.708,K,A*25
$GPGGA,051804.00,1046.16359,N,10639.55007,E,1,03,4.67,8.0,M,-2.6,M,,*42
$GPGSA,A,3,24,18,23,,,,,,,,,,5.59,4.67,3.08*0B
$GPGSV,3,1,11,10,39,348,20,$GPRMC,051805.00,A,1046.16265,N,106$GPGSV,3,1,11,10,39,348,20,12,27,090,08,15,05,065,27,18,54,187,09*72
$GPGSV,3,$GPRMC,051806.00,A,1046.16181,N,10639.55215,E,0.881,,221120,,,A*7E
$GPV$GPRMC,051807.00,A,1046.16149,N,10639.55301,E,0.855,,221120,,,A*76
$GPVTG,,T,,M,0.855,N,1.583,K,A*24
$GPGGA$GPRMC,051808.00,A,1046.16200,N,106391808.00,1046.16200,N,10639.55476,E,1,02,5.83,15.3,M,-2.6,M,,*74
$GP$GPRMC,051809.00,A,1046.16097,N,106GPGSV,3,1,11,10,39,348,21,12,27,090,,15,05,065,27,18,54,187,06*74
$GPGSV,3,2,11,$GPRMC,051810.00,A,1046.16090,N,106$GPRMC,051811.00,A,1046.16045,N,10639.55707,E,1.446,,221120,,,A*71
$GPVTG,,T,,M,1.446,N,2.679,K,A*2E
$GPGGA,051811.00,1046.16045,N,10639.55707,E,1,02,5.84,14.6,M,-2.6,M,,*79
$GPGSA$GPRMC,051812.00,A,1046.16041,N,1061812.00,1046.16041,N,10639.55740,E,1,02,5.$GPRMC,051813.00,A,1046.15994,N,10639.55825,E,1.504,,221120,,,A*7D
$GPVTG,,T,,M,1.504,N,2.785,K,AGPGSV,3,1,11,10,39,349,21,12,27,090$GPRMC,051814.00,A,1046.15911,N,10639.55879,E,1.681,,221120,,,A*70
$GPVTG,,T,,M,1.681,N,3.11051814.00,A,A*65
$GPRMC,051815.00,A,1046.15968,N,10639.55823,E,1.217,,221120,,,A*7B
$GPVTG,,T,,M,1.217,N,2.$GPRMC,051816.00,V,,,,,,,221120,,,N*74
$GPVTG,,,,,,,,,N*30
$GPGGA,01,,,,,,,,,,,,,99.99,99.99,99.99*30$GPRMC,051817.00,V,,,,,,,221120,,,N*75
$GPVTG,,,,,,,,,N*30
$GPGGA,051817.00,,,,,0,00,99.99,,,,,,*6C
$GPGSA,A,1,,,,,,,,,,,,,99.,3,2,11,2$GPRMC,051818.00,A,1046.15851,N,10639.55885,E,1.056,,221120,,,A*76
$GPVTG,,T,,M,1.056,N,1.955,K,051818.00,A,A*6F
$GPRMC,051819.00,A,1046.15822,N,10639.55764,E,0.765,,221120,,,A*75
$GPVTG,,T,,M,0.76$GPRMC,051820.00,A,1046.15750,N,10639.55735,E,0.884,,221120,,,A*71
$GPVTG1820.00,1046.15750,N,10639.55735,E,1,02,3.21,13.4,$GPRMC,051821.00,A,1046.15537,N,10639.56044,E,1.239,,221120,,,A*7C
$GPVTG,,T,,M,1.239,N,2.295,K,A*26
$GPGGA,051821.0GPGSV,3,1,11,10,39,349,21,12,27,090,09,15$GPRMC,051822.00,A,1046.15320,N,10639.56359,E,1.980,,221120,,,A*79
$G9,E,051822.00,A,A*62
$GPRMC,051823.00,A,1046.15288,N,10639.56403,E,1.603,,221120,,,A*77
$GPVTG,,T,,M,1.603,N,2.$GPRMC,051824.00,A,1046.15193,N,10639.56512,E,1.916,,221120,,,A*73
1824.00,1046.15193,N,10639.56512,E,$GPRMC,051825.00,A,1046.15230,N,10639.56515,E,1.254,,221120,,,A*72
$GPVTG,,T,,M,1.254,N,2.323,K,A*21
$GPGGA,051825.00,1046.15230*0A
$GPGSV,3,1,11,10,39,349,22,12,27,090,,15,05,066,28,18,54,187,09*75
$GPGSV,3,2,1$GP,24,19,034,16,25,38,134,*76
$GPGSV,3,3,11,29,06,165,,31,29,223,,32,28,307,15*47
$GPGLL,1046.15262,$GPRMC,051827.00,A,1046.15354,N,106$GPRMC,051828.00,A,1046.15423,N,10639.56607,E,0.555,,221120,,,A*7C
$GPVTG1828.00,1046.15423,N,10639.56607,E,$GPRMC,051829.00,A,1046.15513,N,10639.56622,E,0.522,,221120,,,A*78
*0A
$GPGSV,3,1,11,10,39,349,22,12,27,090,,15,05,066,29,18,54,187,11*7D
$GPGSV,3,2,11,20$GPRMC,051830.00,A,1046.15568,N,106,24,19,034,15,25,38,134,*75
$GPGSV,3,3,11,29,06,165,,31,30,223,,32,28,307,15*4F
$GPGLL,1046.15568,N,10639.56651,E,051830.00,A,A*66
$GPRMC,051831.00,A,1046.15607,N,10639.$GPRMC,051832.00,A,1046.15623,N,106391832.00,1046.15623,N,10639.56690,E,1,05,1.58,13.0,M,-2.6,M,,*72
$GPGSA,A,3,24,18,20,23,32,,,,,,,,2.$GPRMC,051833.00,A,1046.15718,N,10639.56650,E,0.793,,221120,,,A*77
$GPVTG*0A
$GPGSV,3,1,11,10,39,349,21,12,$GPRMC,051834.00,A,1046.15769,N,10639.56635,E,0.809,,221120,,,A*79
$GPVTG,,T,,M,0.809,N,1.498,K,A*26
$GPGG5,E,051834.00,A,A*63
$GPRMC,051835.00,A,1046.15748,N,10639.56737,E,0.877,,221120,,,A*71
$GPVTG,,T,,M,0.877,N,1.624,K,A*2A
$GPGGA,051835.00,1046.15748,N,106$GPRMC,051836.00,A,1046.15771,N,1061836.00,1046$GPRMC,051837.00,A,1046.15841,N,10639.56693,E,0.434,,221120,,,A*71
$G*0A
$GPGSV,3,1,11,10,39,349,24,12,27,090,,15,05,066,30,18,54,187,13*71
$GPGSV,3,2,11,20,64,038$GPRMC,051838.00,A,1046.15876,N,10639.56658,E,0.413,,221120,,,A*78
8,E,051838.00,A,A*65
$GPRMC,051839.00,A,1046.15928,N,10639.56623,E,0.592,,221120,,,A*77
$GPVTG,,T,,M,0.592,N,1.096,K,A*$GPRMC,051840.00,A,1046.15991,N,10639.56592,E,0.855,,221120,,,A*74
$GPVTG,,T,,M,0.855,N,1.583,K,A*24
$GPGGA,051840.00,1046.15991,N,10639.56592,E,1,04,1.67,12.$GPRMC,051841.00,A,1046.15998,N,10639.56555,E,0.649,3
$GPGSV,3,1,11,10,39,349,24,12,27,090,,15,05,066,31$GPRMC,051842.00,A,1046.15965,N,10639.56630,E,0.336,,221120,,,A*78
$GPVTG,,T,,M,0.336,N,0.623E,051842.00,A,A*65
$GPRMC,051843.00,A,1046.16030,N,10639.56603,E,0.569,,221120,,,A*7F
$GPVTG,,T,,M,0.569,N,1.053,K,A*2E
$GPGGA,051843.00,1046.16030,N,10639.56603,E,1,04,1.67,12.1,M$GPRMC,051844.00,A,1046.16072,N,10639.56598,E,0.706,,221120,,,A*74
$GPVTG,,T,,M,0.706,N,1.308,K,A*28
$GPGGA,051844.00,1046.16072,N,10639.56598,E,1,04,1.67,11.9,M,-2$GPRMC,051845.00,A,1046.16059,N,10639.56635,E,0.521,,221120,,,A*7F
$GPVTG,,T,,M,0.521,N,0.9660
$GPGSV,3,1,11,10,39,349,23,12,27,090,,15,05,066,32,18,54,187,12*75
$GPGSV,3,2,11,20,64,038,14,23,57,033,$GPRMC,051846.00,A,1046.15988,N,106653,E,051846.00,A,A*67
$GPRMC,051847.00,A,1046.15997,N,10639.56666,E,0.638,,221120,,,A*78
$GPVTG,,T,,M,0.638,N,1.182,K,A*24
$GPGGA,051847$GPRMC,051848.00,A,1046.16018,N,10639.56661,E,0.603,,221120,,,A*75
$GPVTG1848.00,1046.16018,N,10639.56661,E,1,05,1.57,11.0,M,-2.6,M,,*71
$GPGSA,A,3$GPRMC,051849.00,A,1046.16104,N*05
$GPGSV,3,1,11,10,39,349,22,12,27,090,13,15,05,066,32,18,54,187,12*76
$$GPRMC,051850.00,A,1046.16122,N,10639.56587,E,0.767,,221120,,,A*7C
$GPVTG,,T,,M,0.767,N,1.421,K$GPRMC,051851.00,A,1046.16217,N,10639.56557,E,1.244,,221120,,,A*70
$GPVTG,,T,,M,1.244,N,2.303,K,A*22
$$GPRMC,051852.00,A,1046.16359,N,10639.56402,E,1.970,,221120,,,A*75
$GPVTG,,T,,M,1.970,N,3.649,K,A*24
$GPGGA,051852.00,1046.16359,N,10639.56402,E,1,06,1.27,11.1,M,-2.6,M,,*7E
$GPGSA,$GPRMC,051853.00,A,1046.16434,N,10639.56353,E,1.729,,221120,,,A*79
$GPVTG,,T,,M,1.729,N,3.203,K,A*2C
$GPGGA,051853.00,1046.16434,N,10639.5635396*03
$GPGSV,3,1,11,10,39,349,21,1$GPRMC,051854.00,A,1046.16450,N,10639.56409,E,1.137,,221120,,,A*7D
$GPVTG56409,E,051854.00,A,A*62
$GPRMC,051855.00,A,1046.16428,N,10639.56430,E,0.751,,221120,,,A*7E
$GPVTG,,T,,M,0.751,N,1.391,K,A*2A
$GPGGA,051855.00,1046.16428,N,10639.56430,E,1,03,10.75,12.1,M,-2.6,M,,*48
$GPGSA,A,3,24,23$GPRMC,051856.00,A,1046.1651856.00,1046.16584,N,10639.56337,E,1,04,2.22,12.3,M,-$GPRMC,051857.00,A,1046.16702,N,10639.56173,E,1.619,,221120,,,A*79
$GPVTG,,T,,M,1.4,19,034,14,25,38,134,*7B
