$GPRMC,080317.00,V,,,,,,,211120,,,N*71
$GPVTG,,,,,,,,,N*30
$GPGGA,080317.00,,,,,0,03,14.50,,,,,,*68
$GPGSA,A,1,32,29,25,,,,,,,,,,17.18,14.50,9.22*0B
$GPGSV,3,1,12,01,01,305,,10,72,138,,11,,,09,12,01,037,19*47
$GPGSV,3,2,12,16,11,204,,18,03,159,,23,39,144,,25,25,040,30*70
$GPGSV,3,3,12,26,60,200,,29,11,099,33,31,51,313,08,32,43,029,36*76
$GPGLL,,,,,080317.00,V,N*47
$GPRMC,080318.00,A,1046.17414,N,10639.54246,E,0.324,,211120,,,A*7E
$GPVTG,,T,,M,0.324,N,0.599,K,A*23
$GPGGA,080318.00,1046.17414,N,10639.54246,E,1,03,14.52,10.4,M,-2.6,M,,*4B
$GPGSA,A,3,32,29,25,,,,,,,,,,17.20,14.52,9.23*01
$GPGSV,4,1,14,01,01,305,25,10,72,138,23,11,,,25,12,01,037,17*40
$GPGSV,4,2,14,16,11,204,,18,03,159,20,23,39,144,,25,25,040,29*7B
$GPGSV,4,3,14,26,60,200,,29,11,099,32,31,51,313,09,32,43,029,36*77
$GPGSV,4,4,14,46,,,28,50,44,103,26*47
$GPGLL,1046.17414,N,10639.54246,E,080318.00,A,A*63
$GPRMC,080319.00,A,1046.17321,N,10639.54121,E,0.002,,211120,,,A*7B
$GPVTG,,T,,M,0.002,N,0.003,K,A*22
$GPGGA,080319.00,1046.17321,N,10639.54121,E,1,03,14.54,7.7,M,-2.6,M,,*7A
$GPGSA,A,3,32,29,25,,,,,,,,,,17.23,14.54,9.24*03
$GPGSV,5,1,17,01,01,305,22,10,72,138,22,11,,,25,12,01,037,*42
$GPGSV,5,2,17,14,,,26,16,11,204,21,18,03,159,19,20,,,26*72
$GPGSV,5,3,17,21,,,26,23,39,144,,25,25,040,29,26,60,200,22*4B
$GPGSV,5,4,17,29,11,099,32,31,51,313,15,32,43,029,34,46,,,28*45
$GPGSV,5,5,17,50,44,103,27*4D
$GPGLL,1046.17321,N,10639.54121,E,080319.00,A,A*61
$GPRMC,080320.00,A,1046.17259,N,10639.54036,E,0.354,,211120,,,A*78
$GPVTG,,T,,M,0.354,N,0.656,K,A*24
$GPGGA,080320.00,1046.17259,N,10639.54036,E,1,03,14.56,7.0,M,-2.6,M,,*7C
$GPGSA,A,3,32,29,25,,,,,,,,,,17.25,14.56,9.25*06
$GPGSV,4,1,15,01,01,305,15,10,72,138,19,11,,,21,12,01,037,*49
$GPGSV,4,2,15,14,,,22,16,11,204,16,18,03,159,14,20,,,22*78
$GPGSV,4,3,15,21,,,21,23,39,144,,25,25,040,28,26,60,200,20*4C
$GPGSV,4,4,15,29,11,099,25,31,51,313,12,32,43,029,29*43
$GPGLL,1046.17259,N,10639.54036,E,080320.00,A,A*62
$GPRMC,080321.00,A,1046.17174,N,10639.53912,E,0.249,,211120,,,A*70
$GPVTG,,T,,M,0.249,N,0.462,K,A*2C
$GPGGA,080321.00,1046.17174,N,10639.53912,E,1,03,14.58,6.2,M,-2.6,M,,*74
$GPGSA,A,3,32,29,25,,,,,,,,,,17.27,14.58,9.26*09
$GPGSV,3,1,12,01,01,305,12,10,72,138,,12,01,037,,14,,,19*48
$GPGSV,3,2,12,16,11,204,15,18,03,159,13,23,39,144,,25,25,040,26*71
$GPGSV,3,3,12,26,60,200,19,29,11,099,26,31,51,313,13,32,43,029,30*76
$GPGLL,1046.17174,N,10639.53912,E,080321.00,A,A*67
$GPRMC,080322.00,A,1046.17155,N,10639.53890,E,0.551,,211120,,,A*75
$GPVTG,,T,,M,0.551,N,1.021,K,A*20
$GPGGA,080322.00,1046.17155,N,10639.53890,E,1,03,14.60,6.1,M,-2.6,M,,*77
$GPGSA,A,3,32,29,25,,,,,,,,,,17.30,14.60,9.27*05
$GPGSV,3,1,11,01,01,305,14,10,72,138,,12,01,037,,16,11,204,13*73
$GPGSV,3,2,11,18,03,159,15,23,39,144,,25,25,040,26,26,60,200,18*78
$GPGSV,3,3,11,29,11,099,27,31,51,313,16,32,43,029,25*4D
$GPGLL,1046.17155,N,10639.53890,E,080322.00,A,A*6C
$GPRMC,080323.00,A,1046.17120,N,10639.53808,E,0.628,,211120,,,A*7A
$GPVTG,,T,,M,0.628,N,1.163,K,A*2A
$GPGGA,080323.00,1046.17120,N,10639.53808,E,1,03,14.62,5.6,M,-2.6,M,,*73
$GPGSA,A,3,32,29,25,,,,,,,,,,17.32,14.62,9.28*0A
$GPGSV,3,1,12,01,01,305,14,10,72,138,,12,01,037,,16,11,204,12*71
$GPGSV,3,2,12,18,03,159,15,21,,,22,23,39,144,,25,25,040,25*42
$GPGSV,3,3,12,26,60,200,16,29,11,099,26,31,51,313,14,32,43,029,27*78
$GPGLL,1046.17120,N,10639.53808,E,080323.00,A,A*6E
$GPRMC,080324.00,A,1046.17077,N,10639.53735,E,0.833,,211120,,,A*7B
$GPVTG,,T,,M,0.833,N,1.542,K,A*29
$GPGGA,080324.00,1046.17077,N,10639.53735,E,1,03,14.64,5.9,M,-2.6,M,,*7F
$GPGSA,A,3,32,29,25,,,,,,,,,,17.34,14.64,9.29*0B
$GPGSV,3,1,12,01,01,305,11,10,72,138,,12,01,037,,16,11,204,12*74
$GPGSV,3,2,12,18,03,159,11,21,,,18,23,39,144,,25,25,040,23*49
$GPGSV,3,3,12,26,60,200,15,29,11,099,25,31,51,313,13,32,43,029,27*7F
$GPGLL,1046.17077,N,10639.53735,E,080324.00,A,A*6B
$GPRMC,080325.00,A,1046.17000,N,10639.53658,E,0.514,,211120,,,A*78
$GPVTG,,T,,M,0.514,N,0.951,K,A*2E
$GPGGA,080325.00,1046.17000,N,10639.53658,E,1,03,14.66,5.9,M,-2.6,M,,*76
$GPGSA,A,3,32,29,25,,,,,,,,,,17.36,14.6$GPRMC,080327.00,A,1046.16939,N,10639.530327.00,1046.16939,N,$GPRMC,080329.00,A,1046.16908,N,10639.53720329.00,1046.16908,N,10639.53728,E,1,03,14.74,8.8,2
$GPGSV,3,1,11,01,01,305,12,10,72,138,,12,01,037,10,16,11,2$GPRMC,080330.00,A,1046.16879,N,10639.53760,E,0.415,,211120,,,A*71
$GPVTG,,T,,M,0.415,N,0.769,K,A*2B
$GPGGA,080330.00,1046.16879,N,10639.53760,E,1,03,14.76,9.7,M,-2.6,M,,*7C
$GPGSA,A,3,32,29,25,,,,,,,,,,17.48,14.76,9.36*0D
$GPGSV,3,1,11,01,01,305,12,10,72,138,25,040,26,26,60,200,18*78
$GPGSV,3,3,11,29,11,099,27,31,51,313,10,32,43,02$GPRMC,080331.00,A,1046.16850,N,10639.53776,E,0.387,,211120,,,A*70
$GPVTG,,T,,M,0.387,N,0.717,K,A*2E
$GPGGA,080331.00,1046.16850,N,10639.53776,E,1,03,14.78,10.2,M,-2.6,M,,*42
$GPGSA,A,3,32,29,25,,,,,,,,,,17.51,14.78,9.37*0A
$GPGSV,3,1,11,01,01,305,,10,72,138,,12,01,037,09,16,11,204,*$GPRMC,080332.00,A,1046.16833,N,10639.53808,E,0.456,,211120,,,A*7B
$GPVTG,,T,,M,0.456,N,0.845,K,A*2D
$GPGGA,080332.00,1046.16833,N,10639.53808,E,1,03,14.81,10.8,M,-2.6,M,,*4E
$GPGSA,A,3,32,29,25,,,,,,,,,,17.53,14.81,9.38*01
$GPGSV,3,1,11,01,01,305,,10,72,138,,12,01,037,,16,10,26,26,60,200,19*75
$GPGSV,3,3,11,29,11,099,27,31,51,313,,32,$GPRMC,080333.00,A,1046.16818,N,10639.53819,E,0.315,,211120,,,A*73
$GPVTG,,T,,M,0.315,N,0.583,K,A*2A
$GPGGA,080333.00,1046.16818,N,10639.53819,E,1,03,14.83,11.1,M,-2.6,M,,*4C
$GPGSA,A,3,32,29,25,,,,,,,,,,17.55,14.83,0A
$GPGSV,3,1,11,01,01,305,,10,72,138,,12,01,037,,1$GPRMC,080334.00,A,1046.16826,N,10639.53886,E,0.186,,211120,,,A*77
$GPVTG,,T,,M,0.186,N,0.344,K,A*2F
$GPGGA,080334.00,1046.16826,N,10639.53886,E,1,03,14.85,11.9,M,-2.6,M,,*4E
$GPGSA,A,3,32,29,25,,,,,,,,,,17.58,14.85,9.41*00
$GPGSV,3,1,11,01,01,305,,10,72,138,,12,01,037,,16,11,204,19*7C5,040,26,26,60,200,20*7C
$GPGSV,3,3,11,29,11,099,27,31,51,3$GPRMC,080335.00,V,,,,,,,211120,,,N*71
$GPVTG,,,,,,,,,N*30
$GPGGA,080335.00,,,,,0,02,30.06,,,,,,*6C
$GPGSA,A,1,32,29,,,,,,,,,,,30.08,30.06,1.00*05
$GPGSV,3,1,11,01,01,305,,10,72,138,19,12,01,037,,16,11,204,17*7A
$GPGSV,3,2,11,18,03,1592*4C
$GPGLL,,,,,080335.00,V,N*47
$GPRMC,080336.00,V,,,,,,,211120,,,N*72
$GPVTG,,,,,,,,,N*30
$GPGGA,080336.00,,,,,0,02,30.04,,,,,,*6D
$GPGSA,A,1,32,29,,,,,,,,,,,30.06,30.04,1.00*09
$GPGSV,3,1,11,01,01,305,,10,72,139,16,12,01,037,,16,11,204,13*70
$GPGSV,3,2,11,18,03,159,08,23,39,144,16,25,25,040,26,26,60,200,20*78
$GPGSV,3,3,11,29,11,099,27,31,51,313$GPRMC,080337.00,V,,,,,,,211120,,,N*73
$GPVTG,,,,,,,,,N*30
$GPGGA,080337.00,,,,,0,02,30.02,,,,,,*6A
$GPGSA,A,1,32,29,,,,,,,,,,,30.04,30.02,1.00*0D
$GPGSV,3,1,11,01,01,305,,10,72,139,11,12,01,037,,16,11,204,10*74
$GPGSV,3,2,11,18,03,159,,23,39,144,10,25,25,040,26,26,60,200,14C
$GPGLL,,,,,080337.00,V,N*45
$GPRMC,080338.00,V,,,,,,,211120,,,N*7C
$GPVTG,,,,,,,,,N*30
$GPGGA,080338.00,,,,,0,02,30.00,,,,,,*67
$GPGSA,A,1,32,29,,,,,,,,,,,30.02,30.00,1.00*09
$GPGSV,3,1,11,01,01,305,,10,72,139,,12,01,037,,16,11,204,*75
$GPGSV,3,2,11,18,03,159,,23,39,144,,25,25,040,26,26,60,200,19*7D
$GPGSV,3,3,11,29,11,099,27,31,51,3$GPRMC,080339.00,V,,,,,,,211120,,,N*7D
$GPVTG,,,,,,,,,N*30
$GPGGA,080339.00,,,,,0,02,29.98,,,,,,*6F
$GPGSA,A,1,32,29,,,,,,,,,,,30.00,29.98,1.00*02
$GPGSV,3,1,11,01,01,305,,10,72,139,,12,01,037,,16,11,204,*75
$GPGSV,3,2,11,18,03,159,,23,39,144,,25,25,040,25,26,60,200,18*7F
$GPGSV,3,3,11,29,11,099,27,31,51,313,,32,43,$GPRMC,080340.00,V,,,,,,,211120,,,N*73
$GPVTG,,,,,,,,,N*30
$GPGGA,080340.00,,,,,0,02,29.96,,,,,,*6F
$GPGSA,A,1,32,29,,,,,,,,,,,29.98,29.96,1.00*05
$GPGSV,3,1,11,01,01,305,,10,72,139,,12,01,037,,16,12,204,*76
$GPGSV,3,2,11,18,03,159,,23,39,144,,25,25,040,25,26,60,200,18*7F
$GPGSV,3,3,11,29,11,099,27,31,51,313,,32,43,029,31*4F
$GPGLL,,,,,$GPRMC,080341.00,V,,,,,,,211120,,,N*72
$GPVTG,,,,,,,,,N*30
$GPGGA,080341.00,,,,,0,02,29.94,,,,,,*6C
$GPGSA,A,1,32,29,,,,,,,,,,,29.96,29.94,1.00*09
$GPGSV,3,1,11,01,01,305,,10,72,139,,12,01,037,,16,12,204,18*7F
$GPGSV,3,2,11,18,03,159,,23,39,144,,25,25,040,25,26,60,200,18*7F
$GPGSV,$GPRMC,080342.00,V,,,,,,,211120,,,N*71
$GPVTG,,,,,,,,,N*30
$GPGGA,080342.00,,,,,0,02,29.92,,,,,,*69
$GPGSA,A,1,32,29,,,,,,,,,,,29.94,29.92,1.00*0D
$GPGSV,3,1,11,01,01,305,,10,72,139,25,12,01,037,,16,12,204,16*76
$GPGSV,3,2,11,18,03,159,20,23,39,144,20,25,25,040,25,26,60,200,19*7E
$GPGSV,3,3,11,29,11,099,27,31,51,313,25,32,43,029,31*48
$GPGLL,,,,,080342.00,V,N*47
$GPRMC,080343.00,V,,,,,,,211120,,,N*70
$GPVTG,,,,,,,,,N*30
$GPGGA,080343.00,,,,,0,02,29.90,,,,,,*6A
$GPGSA,A,1,32,29,,,,,,,,,,,29.92,29.90,1.00*09
$GPGSV,3,1,11,01,01,305,,10,72,139,22,12,01,037,,16,12,204,*76
$GPGSV,3,2,11,18,03,159,19,23,39,144,19,25,25,040,25,26,60,200,19*7E
$GPGSV,3,3,11,29,11,099,27,31,51,313,23,32,43,029,32*4D
$GPGLL,,,,,080343.00,V,N*46
$GPRMC,080344.00,V,,,,,,,211120,,,N*77
$GPVTG,,,,,,,,,N*30
$GPGGA,080344.00,,,,,0,02,29.88,,,,,,*64
$GPGSA,A,1,32,29,,,,,,,,,,,29.90,29.88,1.00*02
$GPGSV,3,1,12,01,01,305,,10,72,139,,12,01,037,,16,12,204,*75
$GPGSV,3,2,12,18,03,159,17,22,00,323,,23,39,144,16,25,25,040,25*76
$GPGSV,3,3,12,26,60,200,19,29,11,099,27,31,51,313,22,32,43,029,31*74
$GPGLL,,,,,080344.00,V,N*41
$GPRMC,080345.00,V,,,,,,,211120,,,N*76
$GPVTG,,,,,,,,,N*30
$GPGGA,080345.00,,,,,0,02,29.86,,,,,,*6B
$GPGSA,A,1,32,29,,,,,,,,,,,29.88,29.86,1.00*05
$GPGSV,3,1,12,01,01,305,,10,72,139,,12,01,037,,16,12,204,*75
$GPGSV,3,2,12,18,03,159,,22,00,323,,23,39,144,,25,25,040,25*77
$GPGSV,3,3,12,26,60,200,19,29,11,099,27,31,51,313,21,32,43,029,31*77
$GPGLL,,,,,080345.00,V,N*40
$GPRMC,080346.00,V,,,,,,,211120,,,N*75
$GPVTG,,,,,,,,,N*30
$GPGGA,080346.00,,,,,0,02,29.84,,,,,,*6A
$GPGSA,A,1,32,29,,,,,,,,,,,29.86,29.84,1.00*09
$GPGSV,3,1,12,01,01,305,,10,72,139,,12,01,037,,16,12,204,19*7D
$GPGSV,3,2,12,18,03,159,,22,00,323,,23,39,144,,25,25,040,25*77
$GPGSV,3,3,12,26,60,200,18,29,11,099,27,31,51,313,21,32,43,029,31*76
$GPGLL,,,,,080346.00,V,N*43
$GPRMC,080347.00,A,1046.16944,N,10639.54395,E,0.034,,211120,,,A*70
$GPVTG,,T,,M,0.034,N,0.063,K,A*21
$GPGGA,080347.00,1046.16944,N,10639.54395,E,1,03,15.12,11.9,M,-2.6,M,,*4E
$GPGSA,A,3,32,29,25,,,,,,,,,,17.89,15.12,9.56*05
$GPGSV,3,1,12,01,01,305,,10,72,139,,12,01,037,,16,12,204,17*73
$GPGSV,3,2,12,18,03,159,,22,00,323,,23,39,144,,25,25,040,25*77639.54395,E,080347.00$GPRMC,080348.00,A,1046.16918,N,10639.54386,E,0.167,,211120,,,A*73
$GPVTG,,T,,M,0.167,N,0.309,K,A*29
$GPGGA,080348.00,1046.16918,N,10639.54386,E,1,03,15.14,12.4,M,-2.6,M,,*42
$GPGSA,A,3,32,29,25,,,,,,,,,,17.91,15.14,9.57*0B4,,25,25,040,25*77
$GPGSV,3,3,12,26,60,200,18,29,11,099,27,31,51,313,21,32,$GPRMC,080349.00,A,1046.16920,N,10639.54420,E,0.177,,211120,,,A*73
$GPVTG,,T,,M,0.177,N,0.327,K,A*24
$GPGGA,00349.00,1046.16920,N,10639.54420,E,1,03,15.17,12.8,M,-2.6,M,,*4C
02
$GPGSV,3,1,12,01,01,305,,10,72,139,,12,01,037,22,16,12,204,13*10639.54420,E,080349.00,A,A*6$GPRMC,080350.00,A,1046.16931,N,10639.54461,E,0.239,,211120,,,A*77
$GPVTG,,T,,M,0.239,N,0.443,K,A*28
0350.00,1046.16931,N,10639.54461,E,1,03,15.19,139,144,,25,25,040,25*75
$GPGSV,3,3,12,26,60,200,18,29,11,099,2$GPRMC,080351.00,A,1046.16946,N,10639.54489,E,0.236,,211120,,,A*7F
$GPVTG,,T,,M,0.236,N,0.436,K,A*25
$GPGGA,080351.00,1046.16946,N,10639.54489,E,1,03,15.21,13.6,M,-2.6,M,,*4C
$GPGSA,A,3,32,29,25,,,,,,00
$GPGSV,3,1,12,01,01,305,,10,72,139,,12,01,03N,10639.54489,E,080351.00,A,A*$GPRMC,080352.00,A,1046.16967,N,10639.54546,E,0.280,,211120,,,A*70
$GPVTG,,T,,M,0.280,N,0.519,K,A*24
$GPGGA,080352.00,1046.16967,N,10639.54546,E,1,03,15.23,14.0,M,-2.6,M,,*4D
$GPGSA,A,3,32,29,25,,,,,,0F
$GPGSV,3,1,12,01,01,305,,10,72,139,,12144,,25,25,040,26*73
$GPGSV,3,3,12,26,60,200,19$GPRMC,080353.00,A,1046.16976,N,10639.54582,E,0.156,,211120,,,A*71
$GPVTG,,T,,M,0.156,N,0.290,K,A*2A
$GPGGA,080353.00,1046.16976,N,10639.54582,E,1,03,15.25,14.4,M,-2.6,M,,*46
$GPGSA,A,3,32,29,25,,,,,,,,,,18.04,15.25,9.63*0D
$GPGSV,3,1,12,01,01,305,,10$GPRMC,080354.00,A,1046.16995,N,10639.54637,E,0.076,,211120,,,A*75
$GPVTG,,T,,M,0.076,N,0.140,K,A*27
$GPGGA,080354.00,1046.16995,N,10639.54637,E,1,03,15.27,14.9,M,-2.6,M,,*4E
$GPGSA,A,3,32,29,25,,,,,,,,,,18.06,15.27,90A
$GPGSV,3,1,12,01,01,305,,10,72,139,,12,01,0,25,25,040,25*77
$GP$GPRMC,080355.00,A,1046.17024,N,10639.54703,E,0.214,,211120,,,A*76
$GPVTG,,T,,M,0.214,N,0.397,K,A*29
$GPGGA,080355.00,1046.17024,N,10639.54703,E,1,03,15.30,15.4,M,-2.6,M,,*41
$GPGSA,A,3,32,29,25,,,,,,,,,,18.09,15.30,9.66*014,,25,25,040,25*77
$GPGSV,3,3,12,26,60,200,19,29,11,099,$GPRMC,080356.00,A,1046.17049,N,10639.54767,E,0.124,,211120,,,A*7C
$GPVTG,,T,,M,0.124,N,0.229,K,A*2D
$GPGGA,080356.00,1046.17049,N0B
$GPGSV,3,1,12,01,01,305,,10,72,139,,12,01,034,,25,25,040,26*74
$GPGSV,3,3,12,26,60,200,19,29,11,099,28,31,5$GPRMC,080357.00,A,1046.17061,N,10639.54814,E,0.088,,211120,,,A*7B
$GPVTG,,T,,M,0.088,N,0.163,K,A*27
$GPGGA,080357.00,1046.17061,N,10639.54814,E,1,03,15.34,16.3,M,-2.6,M,,*4B
$GPGSA,A,3,32,29,2144,,25,25,040,26*74$GPRMC,080358.00,A,1046.17071,N,10639.54852,E,0.257,,211120,,,A*77
$GPVTG,,T,,M,0.257,N,0.475,K,A*25
$GPGGA,080358.00,1046.17071,N,10639.54852,E,1,03,15.36,16.6,M,-2.6,M,,*40
$GPGSA,A,3,32,29,25,,,,,,,,,,18.16,15.36,906
$GPGSV,3,1,12,01,01,305,,10,72,139,,12,01,037,09,16,12,204,*7C
$G4,,25,25,040,26*74
$GPGSV,3,$GPRMC,080359.00,A,1046.17093,N,10639.54910,E,0.118,,211120,,,A*75
$GPVTG,,T,,M,0.118,N,0.219,K,A*21
0359.00,1046.17093,N,10639.54910,E,1,03,15.38,174,,25,25,040,26*74
$GPGSV,3,3,12,26,60,200,17,29,11,099,27,31$GPRMC,080400.00,A,1046.17114,N,10639.54961,E,0.110,,211120,,,A*7E
$GPVTG,,T,,M,0.110,N,0.203,K,A*22
$GPGGA,080400.00,1046.17114,N,10639.54961,E,1,03,15.41,17.5,M,-2.6,M,,*4B
$GPGSA,A,3,32,29,25,,,,,,08
$GPGSV,3,1,12,01,639.54961,E,080400.00,A,A*66
$GPRMC,080401.00,A,1046.17122,N,10639.54980,E,0.420,,211120,,,A*73
$GPVTG,,T,,M,0.420,N,0.779,K,A*2C
$GPGGA,080401.00,1046.17122,N,10639.54980,E,1,03,15.43,17.6,M,-2.6,M,,*41
$GPGSA,A,3,32,29,25,,,,,,,,,,18.24,15.43,9.73*0E
$GPGSV,3,1,12,01,01,305,,10,724,,25,25,040,25*77
$GPGSV,3,$GPRMC,080402.00,A,1046.17122,N,10639.54998,E,0.284,,211120,,,A*71
$GPVTG,,T,,M,0.284,N,0.526,K,A*2C
$GPGGA,080402.00,1046.17122,N,10639.54998,E,1,03,15.45,17.8,M,-2.6,M,,*43
$GPGSA,A,3,32,29,25,,,,,,,,,,18.27,15.45,9.74*0C
$GPGSV,3,1,12,01,01,305,,10,72,139,,12,01,037,08,16,12,204,*7D
639.54998,E,080402.00,A,A*67
$GPRMC,080403.00,A,1046.17121,N,10639.55032,E,0.226,,211120,,,A*73
$GPVTG,,T,,M,0.226,N,0.418,K,A*28
$GPGGA,080403.00,1046.17121,N,10639.55032,E,1,03,15.47,18.3,M,-2.6,M,,*4F
$GPGSA,A,3,32,29,25,,,,,,,,,,18.29,15.47,9.75*01
$GPGSV,3,1,12,01,01,305,,10,72,139,,12,01,037,08,16,12,204,*7D
$GPGSV,3,2,12,18,03,159,,22,00,323,,23,39,144,,25,25,040,25*77
$GPGSV,3,3,12,26,60,200,18,29,11,099,27,31,51,314,10,32,43,029,31*73
$GPGLL,1046.17121,N,10639.55032,$GPRMC,080404.00,A,1046.17101,N,10639.55021,E,0.060,,211120,,,A*74
$GPVTG,,T,,M,0.060,N,0.111,K,A*24
$GPGGA,080404.00,1046.17101,N,10639.55021,E,1,03,15.50,18.3,M,-2.6,M,,*4E
$GPGSA,A,3,32,29,25,,,,,,,,,,18.32,15.50,9.77*0F
$GPGSV,3,1,12,01,01,305,,10,72,139,,12,01,037,08,16,12,204,*7D
$GPGSV,3,2,12,18,03,159,,22,00,323,,23,39,144,,25,25$GPRMC,080405.00,A,1046.17079,N,10639.54981,E,0.086,,211120,,,A*71
$GPVTG,,T,,M,0.086,N,0.160,K,A*2A
$GPGGA,080405.00,1046.17079,N,10639.54981,E,1,03,15.52,18.1,M,-2.6,M,,*43
$GPGSA,A,3,32,29,25,,,,,,,,,,18.34,15.52,9.78*04
$GPGSV,3,1,12,01,01,305,,10,72,139,,12,01,037,08,16,12,204,*7D
$GPGSV,3,2,12,18,03,159,,22,00,323,,23,39,144,,25,25,040,25*77
$GPGSV,3,3,12,26,60,200,18,29,11,099,27,31,51,314,09,32,43,029,32*$GPRMC,080406.00,A,1046.17063,N,10639.54955,E,0.165,,211120,,,A*7C
$GPVTG,,T,,M,0.165,N,0.306,K,A*24
$GPGGA,080406.00,1046.17063,N,10639.54955,E,1,03,15.54,18.0,M,-2.6,M,,*45
$GPGSA,A,3,32,29,25,,,,,,,,,,18.37,15.54,9.79*00
$GPGSV,3,1,12,01,01,305,,10,72,139,,12,01,037,08,16,12,204,*7D
$$GPRMC,080407.00,A,1046.17044,N,10639.54902,E,0.101,,211120,,,A*78
$GPVTG,,T,,M,0.101,N,0.186,K,A*2C
$GPGGA,080407.00,1046.17044,N,10639.54902,E,1,03,15.56,17.7,M,-2.6,M,,*49
$GPGSA,A,3,32,29,25,,,,,,,,,,18.39,15.56,9.80*0A
$GPGSV,3,1,12,01,01,305,,10,72,139,,12,01,037,08,16,12,204,*7D
$GPGSV,3,2,12,18,03,159,,22,00,323,,234,,25,25,040,25*77
$GPGSV,3,3,12,26,60,200,19$GPRMC,080408.00,V,,,,,,,211120,,,N*78
$GPVTG,,,,,,,,,N*30
$GPGGA,080408.00,,,,,0,02,29.43,,,,,,*6C
$GPGSA,A,1,32,29,,,,,,,,,,,29.44,29.43,1.00*0C
$GPGSV,3,1,12,01,01,305,,10,72,139,,12,01,037,08,16,12,204,*7D
$GPGSV,3,2,12,18,03,159,,22029,32*7A
$GPGLL,,,,,080408.00,V,N*4E
$GPRMC,080409.00,V,,,,,,,211120,,,N*79
$GPVTG,,,,,,,,,N*30
$GPGGA,080409.00,,,,,0,02,29.41,,,,,,*6F
$GPGSA,A,1,32,29,,,,,,,,,,,29.42,29.41,1.00*08
$GPGSV,3,1,12,01,01,305,,10,72,139,,12,01,037,08,16,12,204,*7D
$GPGSV,3,2,12,18,03,159,,22,00,323,,23,39,144,,25,25,040,25*77
$GPGSV,3,3,12,26,60,200,20,29,11,099,27,31,51,314,,32,43,029,32*7A
$GPGLL,,,,,080409.00,V,N*4F
$GPRMC,080410.00,V,,,,,,,211120,,,N*71
$GPVTG,,,,,,,,,N*30
$GPGGA,080410.00,,,,,0,02,29.39,,,,,,*68
$GPGSA,A,1,32,29,,,,,,,,,,,29.41,29.39,1.00*04
$GPGSV,3,1,12,01,01,305,,10,72,139,,12,01,037,,16,12,204,*75
$GPGSV,3,2,12,18,03,159,,22,00,323,,23,39,144,,25,25,040,24*76
$GPGSV,3,3,12,26,60,200,18,29,11,099,27,31,51,314,,$GPRMC,080411.00,V,,,,,,,211120,,,N*70
$GPVTG,,,,,,,,,N*30
$GPGGA,080411.00,,,,,0,02,29.37,,,,,,*67
$GPGSA,A,1,32,29,,,,,,,,,,,29.39,29.37,1.00*05
$GPGSV,3,1,12,01,01,305,,10,72,139,,12,01,037,17,16,12,204,*73
$GPGSV,3,2,12,18,03,159,,22,00,323,,23,39,144,,25,25,040,24*76
$GPGSV,3,3,12,26,60,200,18,29,11,$GPRMC,080412.00,V,,,,,,,211120,,,N*73
$GPVTG,,,,,,,,,N*30
$GPGGA,080412.00,,,,,0,02,29.35,,,,,,*66
$GPGSA,A,1,32,29,,,,,,,,,,,29.37,29.35,1.00*09
$GPGSV,3,1,12,01,01,305,,10,72,139,,12,01,037,,16,12,204,*75
$GPGSV,3,2,12,18,03,159,,22,00,323,,23,39,144,,25,25,040,24*76
$GPGSV,3,3,12,26,60$GPRMC,080413.00,V,,,,,,,211120,,,N*72
$GPVTG,,,,,,,,,N*30
$GPGGA,080413.00,,,,,0,02,29.33,,,,,,*61
$GPGSA,A,1,32,29,,,,,,,,,,,29.35,29.33,1.00*0D
$GPGSV,3,1,12,01,01,305,,10,72,139,,12,01,037,,16,12,204,*75
$GPGSV,3,2,12,18,03,159,,22,00,323,,23,39,144,,25,25,040,24*76
$GPGSV,3,3,12,26,60,200,17,29,11,099,27,31,51,314,,32,43,029,31*7D
$GPGLL,,,,$GPRMC,080414.00,V,,,,,,,211120,,,N*75
$GPVTG,,,,,,,,,N*30
$GPGGA,080414.00,,,,,0,02,29.32,,,,,,*67
$GPGSA,A,1,32,29,,,,,,,,,,,29.33,29.32,1.00*0A
$GPGSV,3,1,12,01,01,305,,10,72,139,,12,01,037,,16,12,204,*75
$GPGSV,3,2,12,18,03,159,,22,00,323,19,23,$GPRMC,080415.00,V,,,,,,,211120,,,N*74
$GPVTG,,,,,,,,,N*30
$GPGGA,080415.00,,,,,0,02,29.30,,,,,,*64
$GPGSA,A,1,32,29,,,,,,,,,,,29.31,29.30,1.00*0A
$GPGSV,3,1,12,01,01,305,,10,72,139,,12,01,037,,16,12,204,*75
$GPGSV,3,2,12,18,03,159,,22,00,323,18,23,39,144,,25,25,040,23*78
$GPGSV,3,3,12,26,60,200,18,29,11,099,27,31,51,314,,32,43,029,31*72
$GPGLL,,,$GPRMC,080416.00,V,,,,,,,211120,,,N*77
$GPVTG,,,,,,,,,N*30
$GPGGA,080416.00,,,,,0,02,29.28,,,,,,*6E
$GPGSA,A,1,32,29,,,,,,,,,,,29.30,29.28,1.00*02
$GPGSV,3,1,12,01,01,305,,10,72,139,,12,01,037,,16,12,204,*75
$GPGSV,3,2,12,18,03,159,,22,00,323,13,23,39,144,,25,25,040,23*73
$GPGSV,3,3,12,26,60,200,18,29,11,099,27,31,51,314,,$GPRMC,080417.00,V,,,,,,,211120,,,N*76
$GPVTG,,,,,,,,,N*30
$GPGGA,080417.00,,,,,0,02,29.26,,,,,,*61
$GPGSA,A,1,32,29,,,,,,,,,,,29.28,29.26,1.00*05
$GPGSV,3,1,12,01,01,305,,10,72,139,,12,01,037,,16,12,204,*75
$GPGSV,3,2,12,18,03,159,,22,00,323,11,23,39,144,,25,25,040,23*71
$GPGSV,3,3,12,26,60,200,18,29,11,099,27,31,51,314,,32,43,029,31*72
$GPGLL,,,,,080417.00,V,N*40
$GPRMC,080418.00,V,,,,,,,211120,,,N*79
$GPVTG,,,,,,,,,N*30
$GPGGA,080418.00,,,,,0,02,29.24,,,,,,*6C
$GPGSA,A,1,32,29,,,,,,,,,,,29.26,29.24,1.00*09
$GPGSV,3,1,12,01,01,305,,10,72,139,,12,01,037,,16,12,204,*75
$GPGSV,3,2,12,18,03,159,,22,00,323,11,23,39,144,,25,25,040,23*71
$GPGSV,3,3,12,26,60,200,18,29,11,099,27,31,51,314,,32,43,029,31*72
$GPGLL,,,,,080418.00,V,N*4F
$GPRMC,080419.00,V,,,,,,,211120,,,N*78
$GPVTG,,,,,,,,,N*30
$GPGGA,080419.00,,,,,0,02,29.23,,,,,,*6A
$GPGSA,A,1,32,29,,,,,,,,,,,29.24,29.23,1.00*0C
$GPGSV,3,1,12,01,01,305,,10,72,139,,12,01,037,,16,12,204,*75
$GPGSV,3,2,12,18,03,159,,22,00,323,11,23,39,144,,25,25,040,23*71
$GPGSV,3,3,12,26,60,200,19,23,029,30*70
$GPGLL,,,,,080419.00,V,N*4E
$GPRMC,080420.00,A,1046.17077,N,10639.54887,E,0.282,,211120,,,A*79
$GPVTG,,T,,M,0.282,N,0.523,K,A*2F
$GPGGA,080420.00,1046.17077,N,10639.54887,E,1,03,15.86,19.3,M,-2.6,M,,*47
$GPGSA,A,3,32,29,25,,,,,,,,,,1808
$GPGSV,3,1,12,01,01,305,,10,72,139,,12,01,03639.54887,E,080420.00,A,A*69
$GPRMC,080421.00,A,1046.17080,N,10639.54885,E,0.054,,211120,,,A*7B
$GPVTG,,T,,M,0.054,N,0.101,K,A*22
$GPGGA,080421.00,1046.17080,N,10639.54885,E,1,03,15.89,18.34,,25,25,040,22*79
$GPGSV,3,3,12,26,60,20$GPRMC,080422.00,A,1046.17078,N,10639.54879,E,0.266,,211120,,,A*7F
$GPVTG,,T,,M,0.266,N,0.493,K,A*2F
$GPGGA,080422.00,1046.17078,N,10639.54879,E,1,03,15.91,18.0,M,-2.6,M,,*4F
$GPGSA,A,3,32,29,25,,,,,,,,,,18.79,15.91,9.99*0D
$GPGSV,3,1,12,01,01,305,,10,72,139,,12,01,037639.54879,E,080422.00,A,A*65
$GPRMC,080423.00,A,1046.17082,N,10639.54885,E,0.355,,211120,,,A*79
$GPVTG,,T,,M,0.355,N,0.657,K,A*24
$GPGGA,080423.00,1046.17082,N,10639.54885,E,1,03,15.93,17.4,M,-2.6,M,,*41
$GPGS44,,25,25,040,23*78
$GPGSV,3,3,12,26,60,200,19,29,11,099,27,31,$GPRMC,080424.00,A,1046.17083,N,10639.54871,E,0.429,,211120,,,A*78
$GPVTG,,T,,M,0.429,N,0.795,K,A*27
$GPGGA,080424.00,1046.17083,N,10639.54871,E,1,03,15.96,17.2,M,-2.6,M,,*4F
$GPGSA,A,3,32,29,25,,,,,*32
$GPGSV,3,1,12,01,01,305,,10,72,139,,12,01,037,,16,12,204,*7$GPRMC,080425.00,A,1046.17093,N,10639.54857,E,0.539,,211120,,,A*7C
$GPVTG,,T,,M,0.539,N,0.998,K,A*24
$GPGGA,080425.00,1046.17093,N,10639.54857,E,1,03,15.98,17.1,M,-2.6,M,,*46
$GPGSA,A,3,32,29,25,,,*3E
$GPGSV,3,1,12,01,01,305,,10,72,139,,12,01,0,,25,25,040,22*70
$GPGSV,3,3,12,26,60,200,19,29,11,099,27,31,$GPRMC,080426.00,A,1046.17054,N,10639.54799,E,0.340,,211120,,,A*71
$GPVTG,,T,,M,0.340,N,0.630,K,A*21
$GPGGA,080426.00,1046.17054,N,10639.54799,E,1,03,16.01,16.8,M,-2.6,M,,*48
$GPGSA,A*3D
$GPGSV,3,1,12,01,01,305,,10,72,139,,12,01,0$GPRMC,080427.00,A,1046.17047,N,10639.54788,E,0.588,,211120,,,A*70
$GPVTG,,T,,M,0.588,N,1.089,K,A*26
$GPGGA,080427.00,1046.17047,N,10639.54788,E,1,03,16.03,16.6,M,-2.6,M,,*47
$GPGSA,A,3,32,29,25,,,,,,,,,,18.92,16.03,10.06*3E
$GPGSV,3,1,12,01,01,305,,10,72,139,,44,,25,25,040,21*74
$GPGSV,3,3,12,26,60,2$GPRMC,080428.00,A,1046.17124,N,10639.54883,E,1.238,,211120,,,A*72
$GPVTG,,T,,M,1.238,N,2.292,K,A*20
$GPGGA,080428.00,1046.17124,N,10639.54883,E,1,03,16.05,16.3,M,-2.6,M,,*4B
$GPGSA,A,3,32,29,25,,,,,,,,,,18.9544,,25,25,040,21*76
$GPGSV,3,3,12,26,60,2$GPRMC,080429.00,A,1046.17141,N,10639.54905,E,1.073,,211120,,,A*72
$GPVTG,,T,,M,1.073,N,1.988,K,A*2E
$GPGGA,080429.00,1046.17141,N,10639.54905,E,1,03,16.08,16.2,M,-2.6,M,,*4A
$GPGSA,A,3,32,29,25,,,,,,,,,,18.98,16.08,10.09*30
$GPGSV,3,1,12,01,01,305,,10,72,139,,12,01,037,,16,12,204,*75
$G44,,25,25,040,21*76
$GPRMC,080430.00,A,1046.17099,N,10639.54843,E,0.680,,211120,,,A*76
$GPVTG,,T,,M,0.680,N,1.260,K,A*28
$GPGGA,080430.00,1046.17099,N,10639.54843,E,1,03,16.10,16.1,M,-2.6,M,,*4F
$GPGSA,A,3,32,29,25,,,,,,,,,,19.01,16.1044,,25,24,040,21*77
$GPGSV,3,3,12,26,60,200,18,29,11,099,27,31,51,314,,32,43,029,30*73
$G$GPRMC,080431.00,A,1046.17127,N,10639.54855,E,1.270,,211120,,,A*7E
$GPVTG,,T,,M,1.270,N,2.352,K,A*21
$GPGGA,080431.00,1046.17127,N,10639.54855,E,1,03,16.12,15.9,M,-2.6,M,,*31
$GPGSV,3,1,12,01,01,305,,10,72,139,,12,01,037,,16,12,204,*750639.54855,E,080431.00,A,A*62
$GPRMC,080432.00,A,1046.17098,N,10639.54807,E,0.733,,211120,,,A*7C
$GPVTG,,T,,M,0.733,N,1.357,K,A*24
$GPGGA,080432.00,1046.17*31
$GPGSV,3,1,12,01,01,305,,10,72,139,,144,16,25,24,040,21*72
$GPGSV,3,3,12,26,60,201,1$GPRMC,080433.00,A,1046.17092,N,10639.54772,E,0.444,,211120,,,A*79
$GPVTG,,T,,M,0.444,N,0.821,K,A*2C
$GPGGA,080433.00,1046.17092,N,10639.54772,E,1,03,16.17,15.5,M,-2.6,M,,*4A
$GPGSA,A,3,32,29,25,,,,,,,,,,19.09,16.17,10.14*3B
$GPGSV,3,1,12,01,01,305,,10,72,139,,$GPRMC,080434.00,A,1046.17114,N,10639.54776,E,0.409,,211120,,,A*7C
$GPVTG,,T,,M,0.409,N,0.758,K,A*24
$GPGGA,080434.00,1046.17114,N,10639.54776,E,1,03,16.20,15.2,M,-2.6,M,,*34
$GPGSV,3,1,12,01,01,305,,10,72,139,,12,01,037,,16,12,204,*75,15,25,24,040,22*75
$GPGSV,3,3,12,26,60,$GPRMC,080435.00,A,1046.17109,N,10639.54762,E,0.530,,211120,,,A*7F
$GPVTG,,T,,M,0.530,N,0.981,K,A*25
$GPGGA,080435.00,1046.17109,N,10639.54762,E,1,03,16.22,15.0,M,-2.6,M,,*4D
$GPGSA,A,3,32,29,25,,,,,,,,,,,15,25,24,040,22*75
$GPGSV,3,3,12,$GPRMC,080436.00,A,1046.17064,N,10639.54702,E,0.142,,211120,,,A*71
$GPVTG,,T,,M,0.142,N,0.263,K,A*23
$GPGGA,080436.00,1046.17064,N,10639.54702,E,1,03,16.25,14.9,M,-2.6,M,,*4D
$GPGSA,A,3,32,29,25,,,,,,,,,,19.17,16.25,10.18*39
$GPGSV,3,1,12,01,01,305,,10,72,139,,12,01,037,,16,12,204,*75
$GPGSV,3,2,12,18,03,159,,22,00,323,,23,39,144,15,25,24,39.54702,E,080436.00,A,A*6E
$GPRMC,080437.00,A,1046.17082,N,10639.54729,E,0.203,,211120,,,A*77
$GPVTG,,T,,M,0.203,N,0.377,K,A*21
$GPGGA,080437.00,1046.17082,N,10639.54729,E,1,03,16.27,14.9,M,-2.6,M,,*4F
$GPGSA,A,3,32,29,25,,,,,,,,,,19.20,16.27,10.19*3E
$GPGSV,3,1,12,01,01,305,,10,72,139,,12,01,037,15,25,24,040,22*75
$GPGSV,3,3,12,$GPRMC,080438.00,A,1046.17104,N,10639.54761,E,0.192,,211120,,,A*70
$GPVTG,,T,,M,0.192,N,0.355,K,A*2A
$GPGGA,080438.00,1046.17104,N,10639.54761,E,1,03,16.30,15.0,M,-2.6,M,,*4D
$GPGSA,A,3,32,29,25,,,,,,,,,,19.23,16.30,10.21*30
$GPGSV,3,1,12,01,01,305,,10,72,139,,12,01,037,,16,12,204,*75
$GPGSV,3,2,12,18,03,159,,22,00,0639.54761,E,080438.00,A,A*62$GPRMC,080439.00,A,1046.17075,N,10639.54714,E,0.105,,211120,,,A*7A
$GPVTG,,T,,M,0.105,N,0.195,K,A*2A
$GPGGA,080439.00,1046.17075,N,10639.54714,E,1,03,16.32,14.8,M,-2.6,M,,*42
$GPGSA,A,3,32,29,25,,,,,,,,,,19.26,16.32,10.22*34
$GPGSV,3,1,12,01,01,305,,10,72,139,44,08,25,24,040,23*7D
$GPGSV,3,3,12,26,60,201,19,29,11,098,27$GPRMC,080440.00,A,1046.17111,N,10639.54756,E,0.341,,211120,,,A*73
$GPVTG,,T,,M,0.341,N,0.631,K,A*21
$GPGGA,080440.00,1046.17111,N,10639.54756,E,1,03,16.34,14.9,M,-2.6,M,,*4E
$GPGSA,A,3,32,29,25,,,,,,,,,,19.28,16.34,10.23*3D
$GPGSV,3,1,12,01,01,305,,10,72,139,,12,01,037,,16,12,204,*75
$GPGSV,3,2,12,18,03,159,,22,00,323,,23,39,144,,25,24,0$GPRMC,080441.00,A,1046.17174,N,10639.54845,E,0.613,,211120,,,A*7E
$GPVTG,,T,,M,0.613,N,1.135,K,A*21
$GPGGA,080441.00,1046.17174,N,10639.54845,E,1,03,16.37,15.2,M,-2.6,M,,*48
$GPGSA,A,3,32,29,25,,,,,,,,,,19.31,16.37*30
$GPGSV,3,1,12,01,01,305,,10,72,139,,12,01,037,,16,12,204,*75
$GPGSV,3,2,12,18,03,1544,,25,24,040,23*70
$GPGSV,3,3,12,$GPRMC,080442.00,A,1046.17122,N,10639.54789,E,0.300,,211120,,,A*76
$GPVTG,,T,,M,0.300,N,0.556,K,A*26
$GPGGA,080442.00,1046.17122,N,10639.54789,E,1,03,16.39,15.4,M,-2.6,M,,*4F
$GPGSA,A,3,32,29,25,,,,,,,,,,19.34,16.39,10.26*38
$GPGSV,3,1,12,01,01,305,,10,72,139,,12,01,037,,16,12,204,15*71
$GPGSV,3,2,12,18,03,159,,22,00,323,1$GPRMC,080443.00,A,1046.17167,N,10639.54880,E,0.234,,211120,,,A*76
$GPVTG,,T,,M,0.234,N,0.433,K,A*22
$GPGGA,080443.00,1046.17167,N,10639.54880,E,1,03,16.42,15.9,M,-2.6,M,,*48
$GPGSA,A,3,32,29,25,,,,,,,*36
$GPGSV,3,1,12,01,01,305,,10,7244,19,25,24,040,23*78
$GPGSV,3,3,12,26,60,201,20,29,11,098,27,31,51,314,,3$GPRMC,080444.00,A,1046.17157,N,10639.54857,E,0.151,,211120,,,A*78
$GPVTG,,T,,M,0.151,N,0.279,K,A*2A
$GPGGA,080444.00,1046.17157,N,10639.54857,E,1,03,16.44,15.5,M,-2.6,M,,*4C
$GPGSA,A,3,32,29,25,,,,,,,,,,19.40,16.44,10.29*3E
$GPGS44,17,25,24,040,22*77
$GPGSV,3,3,12,26,60,201,19,29,11,098,27,31,51,314,,3$GPRMC,080445.00,A,1046.17106,N,10639.54777,E,0.085,,211120,,,A*78
$GPVTG,,T,,M,0.085,N,0.158,K,A*22
$GPGGA,080445.00,1046.17106,N,10639.54777,E,1,03,16.47,15.2,M,-2.6,M,,*40
$GPGSA,A,3,32,29,25,,,,,,,,,,19.43,16.47,10.30*36
$GPGSV,3,1,12,01,01,305,,10,72,139,,12,01,037,,16,12,2044,14,25,24,040,22*74
$GPGSV,3,3,12,26,60,201,19,29,11,098,27,31,51,314,,32,43,030,30*7A
$G$GPRMC,080446.00,A,1046.17117,N,10639.54785,E,0.247,,211120,,,A*7A
$GPVTG,,T,,M,0.247,N,0.457,K,A*24
$GPGGA,080446.00,1046.17117,N,10639.54785,E,1,03,16.49,15.1,M,-2.6,M,,*43
$GPGSA,A,3,32,29,25,,,,,,,,,,19.45,16.49,10.32*3C
$GPGSV,3,1,12,01,01,305,,10,72,139,,44,12,25,24,040,22*72
$GPGSV,3,3,1$GPRMC,080447.00,A,1046.17096,N,10639.54749,E,0.170,,211120,,,A*74
$GPVTG,,T,,M,0.170,N,0.315,K,A*22
$GPGGA,080447.00,1046.17096,N,10639.54749,E,1,03,16.52,15.0,M,-2.6,M,,*41
$GPGSA,A,3,32,29,25,,,,,,,,,,19.48,16.52,10.33*3A
$GPGSV,3,1,12,01,01,305,,10,72,139,,12,01,037,,16,12,204,08*7D
$GPGSV,3,2,12,18,03,159,,22,00,323,,23,39,144,10,25,24,040,22*0639.54749,E,080447.00,A,A*6A
$GPRMC,080448.00,A,1046.17097,N,10639.54731,E,0.180,,211120,,,A*7A
$GPVTG,,T,,M,0.180,N,0.334,K,A*2E
$GPGGA,080448.00,1046.17097,N,10639.54731,E,1,03,16.54,14.8,M,-2.6,M,,*4F
$GPGSA,A,3,32,29,25,,,,,,,,,,19.51,16.54,10.34*33
$GPGSV,3,1,12,01,01,305,,10,72,1344,12,25,24,040,23*73
$GPGSV,3,3,12,26,60,201,19,29,11,098,27$GPRMC,080449.00,A,1046.17179,N,10639.54847,E,1.057,,211120,,,A*7E
$GPVTG,,T,,M,1.057,N,1.958,K,A*25
$GPGGA,080449.00,1046.17179,N,10639.54847,E,1,03,16.57,15.1,M,-2.6,M,,*4A
$GPGSA,A,3,32,29,25,,,,,,,,,,19.54,16.57,10.36*37
$GPGSV,3,1,12,01,01,305,,10,72,139,,12,01,037,,16,12,204,08*7D
$GPGSV,3,2,12,18,03,$GPRMC,080450.00,A,1046.17161,N,10639.54824,E,0.472,,211120,,,A*78
$GPVTG,,T,,M,0.472,N,0.875,K,A*28
$GPGGA,080450.00,1046.17161,N,10639.54824,E,1,03,16.60,15.2,M,-2.6,M,,*49
$GPGSA,A,3,32,29,25,,,,,,,,,,19.57,16.60,10.37*31
$GPGSV,3,1,12,01,01,305,,10,72,139,,12,01,037,,16,12,204,*75
$GPGSV,3,2,12,18,0,09,25,24,040,23*79
$GPGSV,3,3,12,26,60,201,20,29,11,098,26,3$GPRMC,080451.00,A,1046.17172,N,10639.54874,E,0.520,,211120,,,A*78
$GPVTG,,T,,M,0.520,N,0.963,K,A*28
$GPGGA,080451.00,1046.17172,N,10639.54874,E,1,03,16.62,15.8,M,-2.6,M,,*47
$GPGSA,A,3,32,29,25,,,,,,,,,,19.60,16.62,10.39*39
$GPGSV,3,1,12,01,01,305,,10,72,139,,12,01,037,,16,12,204,*75
$GPGSV,3,2,12,18,03,159,,22,00,323,,23,39,144,09,25,24,0$GPRMC,080452.00,A,1046.17088,N,10639.54761,E,0.139,,211120,,,A*78
$GPVTG,,T,,M,0.139,N,0.258,K,A*27
$GPGGA,080452.00,1046.17088,N,10639.54761,E,1,03,16.65,15.5,M,-2.6,M,,*41
$GPGSA,A,3,32,29,25,,,,,,,,,,19.63,16.65,10.40*33
$GPGSV,3,1,12,01,01,305,,10,72,139,,12,01,037,,16,12,204,*75
$GPGSV,3,2,12,18,03,159,,22,00,323,21,244,,25,24,040,22*72
$GPGSV,3,3,12,26,60,201,19,29,11,098,26,31,51,314,,32,43,030,30*7B
$GPGLL,1046.17088,N,10639.54761,E$GPRMC,080453.00,A,1046.17115,N,10639.54806,E,0.481,,211120,,,A*74
$GPVTG,,T,,M,0.481,N,0.891,K,A*2E
$GPGGA,080453.00,1046.17115,N,10639.54806,E,1,03,16.67,15.7,M,-2.6,M,,*4B
$GPGSA,A,3,32,29,25,,,,,,,,,,19.66,16.644,,25,24,040,22*78
$GPGSV,3,3,12,26,60,20$GPRMC,080454.00,A,1046.17062,N,10639.54702,E,0.110,,211120,,,A*74
$GPVTG,,T,,M,0.110,N,0.203,K,A*22
$GPGGA,080454.00,1046.17062,N,10639.54702,E,1,03,16.70,15.1,M,-2.6,M,,*46
$GPGSA,A,3,32,29,25,,,,,,,,,,19.69,16.70,10.43*3E
$GPGSV,3,1,12,01,01,305,,10,72,139,,12,01,037,,16,12,204,*75
$GPGSV,3,2,12,1839.54702,E,080454.00,A,A*6C
$GPRMC,080455.00,A,1046.17079,N,10639.54704,E,0.169,,211120,,,A*77
$GPVTG,,T,,M,0.169,N,0.312,K,A*2D
$GPGGA,080455.00,1046.17079,N,10639.54704,E,1,03,16.72,14.8,M,-2.6,M,,*41
$GPGSA,A,3,32,29,25,,,,,,,,,,19.71,16.72,10.44*32
$GPGSV,3,1,12,01,01,305,,10,72,139,,12,044,,25,24,040,22*71
$GPGSV,3,3,12,26,60,201,19,29,11,098,26,31,51,314,,32,43,030,30*7B
$GPGLL,1046.17079,N,10639.54704$GPRMC,080456.00,A,1046.17010,N,10639.54602,E,0.564,,211120,,,A*75
$GPVTG,,T,,M,0.564,N,1.045,K,A*24
$GPGGA,080456.00,1046.17010,N,10639.54602,E,1,03,16.75,14.5,M,-2.6,M,,*40
$GPGSA,A,3,*32
$GPGSV,3,1,12,01,01,305,,10,72,139,,12,01,037,,16,12,204,*75
$GPGSV,3,2,12,18,03,159,,22,00,323,11,23,39,144,18,25$GPRMC,080457.00,A,1046.17070,N,10639.54693,E,0.272,,211120,,,A*7A
$GPVTG,,T,,M,0.272,N,0.504,K,A*25
$GPGGA,080457.00,1046.17070,N,10639.54693,E,1,03,16.77,14.8,M,-2.6,M,,*40
$GPGSA,A,3,32,29,25,,,,,,,,,,19.77,16.77,10.47*32
$GPGSV,3,1,12,01,01,305,,10,72,139,,12,01,037,,16,12,204,*75
$GPGSV,3,2,12,1844,15,25,24,040,22*76
$GPGSV,3,3,12,26,60,201,19,29,11,098,27,31,51,3$GPRMC,080458.00,A,1046.17076,N,10639.54725,E,0.226,,211120,,,A*7E
$GPVTG,,T,,M,0.226,N,0.418,K,A*28
$GPGGA,080458.00,1046.17076,N,10639.54725,E,1,03,16.80,15.2,M,-2.6,M,,*46
$GPGSA,A,3,32,29,25,,,,,,,,,,19.80,16.80,144,10,25,24,040,22*70
$GPGSV,3,3,12,26,60,201,19,29,11,098,27,31,51,314,,32,43,$GPRMC,080459.00,A,1046.17018,N,10639.54640,E,0.407,,211120,,,A*70
$GPVTG,,T,,M,0.407,N,0.753,K,A*21
$GPGGA,080459.00,1046.17018,N,10639.54640,E,1,03,16.83,14.7,M,-2.6,M,,*4A
$GPGSA,A,3,32,29,25,,,,,,,,,,19.83,16.83,10.50*34
$GPGSV,3,1,12,01,01,305,,10,72,139,,12,01,037,,16,12,204,*75
$GPGSV,3,2,12,18,03,159,,2244,08,25,24,040,22*79
$GPGSV,3,3,12,26,60,201,19,29,11,098,27,31,51$GPRMC,080500.00,A,1046.17151,N,10639.54860,E,1.042,,211120,,,A*79
$GPVTG,,T,,M,1.042,N,1.930,K,A*2F
$GPGGA,080500.00,1046.17151,N,10639.54860,E,1,03,16.85,15.7,M,-2.6,M,,*40
$GPGSA,A,3,32,29,25,,,,,,,,,,19.86,16.844,08,25,24,040,22*79
$GPGSV,3,3,12,26,60,201,19,29,11,098,27,31,51,314,,32,43,030,30*7A
$GPGLL,1046.1715$GPRMC,080501.00,A,1046.17148,N,10639.54834,E,1.011,,211120,,,A*77
$GPVTG,,T,,M,1.011,N,1.872,K,A*2E
$GPGGA,080501.00,1046.17148,N,10639.54834,E,1,03,16.88,15.3,M,-2.6,M,,*41
$GPGSA,A,3,32,29,25,,,,,,,,,,19.89,16.88,10.53*36
$GPGSV,3,1,12,01,01,305,,10,72,139,,12,01,037,,16,12,204,*75
$GPGSV,3,2,12,18,03,150639.54834,E,080501.00,A,A*6E
$GPRMC,080502.00,A,1046.17084,N,10639.54715,E,0.604,,211120,,,A*7A
$GPVTG,,T,,M,0.604,N,1.119,K,A*29
$GPGGA,080502.00,1046.17084,N,10639.54715,E,1,03,16.90,14.6,M,-2.6,M,,*42
$GPGSA,A,3,32,29,25,,,,,,,,,,19.92,16.90,10.54*32
$G44,08,25,24,040,21*7D
$GPGSV,3,3,12,26,60,201,19,29,11,098,27,31,51,314,,32,43,030,30*7A
$GPGLL,1046.17084,$GPRMC,080503.00,A,1046.17063,N,10639.54694,E,0.351,,211120,,,A*7F
$GPVTG,,T,,M,0.351,N,0.650,K,A*27
$GPGGA,080503.00,1046.17063,N,10639.54694,E,1,03,16.93,14.6,M,-2.6,M,,*41
$GPGSA,A,3,32,29,25,,,,,,,,,,19.95,16.93,10.5*34
$GPGSV,3,1,12,01,01,305,,10,72,140,,12,01,037,,16,12,204,*7B
$GPGSV,3,2,12,18,03,159,,22,00,323,07,23,39,144,08,25,24,0639.54694,E,080503.00,A,A*60
$GPRMC,080504.00,A,1046.16927,N,10639.54479,E,0.888,,211120,,,A*7E
$GPVTG,,T,,M,0.888,N,1.644,K,A*2C
$GPGGA,080504.00,1046.16927,N,10639.54479,E,1,03,16.96,13.7,M,-2.6,M,,*4C
$GPGSA,A,3,32,29,25,,,,,,,,,,19.98,16.96,10.57*3D
$GPGSV,3,1,12,01,01,305,08,25,24,040,21*7A
$GPGSV,3,3,12,26,60,201,19,29,11,098,28,31,51,3$GPRMC,080505.00,A,1046.16906,N,10639.54442,E,0.254,,211120,,,A*7F
$GPVTG,,T,,M,0.254,N,0.470,K,A*23
$GPGGA,080505.00,1046.16906,N,10639.54442,E,1,03,16.98,13.5,M,-2.6,M,,*4A
$GPGSA,A,3,32,29,25,,,,,,,,,,20.01,16.98,10.59*37
$GPGSV,3,1,12,01,01,305,,10,72,140,,12,01,037,,16,12,204,*7B
$GPGSV,3,2,12,18,03,159,18,22,00,323,23,23,39,144,08,25,24,040,21*72
$GPRMC,080506.00,A,1046.16920,N,10639.54485,E,0.068,,211120,,,A*7E
$GPVTG,,T,,M,0.068,N,0.126,K,A*28
$GPGGA,080506.00,1046.16920,N,10639.54485,E,1,03,17.01,13.9,M,-2.6,M,,*4B
$GPGSA,A,3,32,29,25,,,,,,,,,,20.04,17.01,10.6*39
$GPGSV,3,1,12,01,01,305,,10,72,140,,12,0,144,08,25,24,040,21*7F
$GPGSV,3,3,12,26,60,201,19,29,11,098,27,31,$GPRMC,080507.00,V,,,,,,,211120,,,N*76
$GPVTG,,,,,,,,,N*30
$GPGGA,080507.00,,,,,0,03,17.04,,,,,,*6D
$GPGSA,A,1,32,29,25,,,,,,,,,,20.07,17.04,10.61*3C
$GPGSV,3,1,12,01,01,305,,10,72,140,,12,01,037,,16,12,204,*7B
$GPGSV,2,12,18,03,159,11,22,00,323,15,23,39,144,08,25,24,040,20*7F
$GPGSV$GPRMC,080508.00,V,,,,,,,211120,,,N*79
$GPVTG,,,,,,,,,N*30
$GPGGA,080508.00,,,,,0,03,17.06,,,,,,*60
$GPGSA,A,1,32,29,25,,,,,,,,,,20.10,17.06,10.63*3A
$GPGSV,3,1,12,01,01,305,,10,72,140,,12,01,037,,16,12,204,*7B
$GPGSV,3,2,12,18,03,159,10,22,00,323,,23,39,144,07,25,24,040,21*74
$GP$GPRMC,080509.00,V,,,,,,,211120,,,N*78
$GPVTG,,,,,,,,,N*30
$GPGGA,080509.00,,,,,0,02,28.39,,,,,,*60
$GPGSA,A,1,32,29,,,,,,,,,,,28.41,28.39,1.00*04
$GPGSV,3,1,12,01,01,305,,10,72,140,,12,01,037,,16,12,204,*7B
$GPGSV,3,2,12,18,03,159,,22,00,323,,23,39,144,07,25,24,040,19*7E
$GPGSV,3,3,12,26,60,201,17,29,11,098,28,31,51,314,,32,43,030,29*73
$GPGLL,,,,,080509.00,V,N*4E
$GPRMC,080510.00,V,,,,,,,211120,,,N*70
$GPVTG,,,,,,,,,N*30
$GPGGA,080510.00,,,,,0,02,28.37,,,,,,*66
$GPGSA,A,1,32,29,,,,,,,,,,,28.39,28.37,1.00*05
$GPGSV,3,1,12,01,01,305,,10,72,140,,12,01,037,,16,12,204,*7B
$GPGSV,3,2,12,18,03,159,16,22,00,323,,23,39,144,07,25,24,040,20*73
$GPGSV,3,3,12,26,60,201,17,29,11,098,27,31,51,314,,32,43,030,29*7C
$GPGLL,,,,,080510.00,V,N*46
$GPRMC,080511.00,V,,,,,,,211120,,,N*71
$GPVTG,,,,,,,,,N*30
$GPGGA,080511.00,,,,,0,02,28.36,,,,,,*66
$GPGSA,A,1,32,29,,,,,,,,,,,28.37,28.36,1.00*0A
$GPGSV,3,1,12,01,01,305,,10,72,140,,12,01,037,,16,12,204,*7B
$GPGSV,3,2,12,18,03,159,15,22,00,323,20,23,38,144,07,25,24,040,19*79
$GPGSV,3,3,12,26,60,201,17,29,11,0,43,030,29*7C
$GPGLL,,,,,080511.00,V,N*47
$GPRMC,080512.00,V,,,,,,,211120,,,N*72
$GPVTG,,,,,,,,,N*30
$GPGGA,080512.00,,,,,0,02,28.34,,,,,,*67
$GPGSA,A,1,32,29,,,,,,,,,,,28.36,28.34,1.00*09
$GPGSV,3,1,12,01,01,305,,10,72,140,,12,01,037,,16,12,204,19*73
$GPGSV,3,2,12,18,03,159,12,22,00,323,18,23,38,144,07,25,24,040,20*7F
$GPGSV,3,3,12,26,60,201,17,29,11,098,27,31,51,314,,32,43,030,29*7C
$GPGLL,,,,,080512.00,V,N*44
$GPRMC,080513.00,V,,,,,,,211120,,,N*73
$GPVTG,,,,,,,,,N*30
$GPGGA,080513.00,,,,,0,02,28.33,,,,,,*61
$GPGSA,A,1,32,29,,,,,,,,,,,28.34,28.33,1.00*0C
$GPGSV,3,1,12,01,01,305,,10,72,140,,12,01,037,,16,12,204,*7B
$GPGSV,3,2,12,18,03,159,12,22,00,323,17,23,38,144,07,25,24,040,20*70
$GPG$GPRMC,080514.00,A,1046.17006,N,10639.54687,E,0.988,,211120,,,A*76
$GPVTG,,T,,M,0.988,N,1.829,K,A*28
$GPGGA,080514.00,1046.17006,N,10639.54687,E,1,03,17.22,14.8,M,-2.6,M,,*43
$GPGSA,A,3,32,29,25,,,,,,,,,,20.29,17.22,10.72*34
$GPGSV,3,1,12,01,01,305,,38,144,08,25,24,040,20*7C
$GPGSV,3,3,12,26,61,201,18,29,11,098,27,3$GPRMC,080515.00,A,1046.16951,N,10639.54602,E,0.536,,211120,,,A*79
$GPVTG,,T,,M,0.536,N,0.992,K,A*21
$GPGGA,080515.00,1046.16951,N,10639.54602,E,1,03,17.25,14.5,M,-2.6,M,,*4F
$GPGSA,A,3,32,29,25,,,,,,,,,,20.32,17.25,10.73*38
$GPGSV,3,1,12,01,01,305,,10,72,140,,12,01,037,,16,12,204,18*72
$GPGSV,3,2,12,1$GPRMC,080516.00,A,1046.16868,N,10639.54491,E,0.047,,211120,,,A*7A
$GPVTG,,T,,M,0.047,N,0.087,K,A*2F
$GPGGA,080516.00,1046.16868,N,10639.54491,E,1,03,17.28,14.3,M,-2.6,M,,*44
$GPGSA,A,3,32,29,25,,,,,,,,,,20.35,17.28,10.75*34
$GPGSV,3,1,12,01,01,305,,10,72,140,,12,01,037,,16,12,204,15*7F
$GPGSV,3,2,12,18,03,159,,N,10639.54491,E,080516.00,A,A*61
$GPRMC,080517.00,A,1046.16821,N,10639.54436,E,0.140,,211120,,,A*7D
$GPVTG,,T,,M,0.140,N,0.260,K,A*22
$GPGGA,080517.00,1046.16821,N,10639.54436,E,1,03,17.31,14.3,M,-2.6,M,,*4D
$GPGSA,A,3,32,29,25,,,,,,,,,,20.38,17.31,10.76*32
$GPGSV,3,1,12,01,01,305,,10,72,140,,12,01,037,,16,12,204,144,08,25,24,040,19*70
$GPGSV,3,3,12,26,61,201,18,29,11,098,$GPRMC,080518.00,A,1046.16879,N,10639.54540,E,0.456,,211120,,,A*7D
$GPVTG,,T,,M,0.456,N,0.845,K,A*2D
$GPGGA,080518.00,1046.16879,N,10639.54540,E,1,03,17.33,14.8,M,-2.6,M,,*46
$GPGSA,A,3,32,29,25,,,,,,,,,,20.41,17.33,10.78*30
$GPGSV,3,1,12,01,01,144,08,25,24,040,20*78
$GPGSV,3,3,12,26,61,201,1$GPRMC,080519.00,A,1046.16907,N,10639.54604,E,0.517,,211120,,,A*73
$GPVTG,,T,,M,0.517,N,0.957,K,A*2B
$GPGGA,080519.00,1046.16907,N,10639.54604,E,1,03,17.36,15.2,M,-2.6,M,,*42
$GPGSA,A,3,32,29,25,,,,,,,,,,20.4*31
$GPGSV,3,1,12,01,01,305,,10,72,140,,12,01,037,0639.54604,E,080519.00,A,A*68
$GPRMC,080520.00,A,1046.16887,N,10639.54586,E,0.092,,211120,,,A*71
$GPVTG,,T,,M,0.092,N,0.171,K,A*2F
$GPGGA,080520.00,1046.16887,N,10639.54586,E,1,03,17.39,15.3,M,-2.6,M,,*46
$GPGSA,A,3,32,29,25,,,,,,,,,,2,144,,25,24,040,19*78
$GPGSV,3,3,12,26,61,201,19,2$GPRMC,080521.00,A,1046.16838,N,10639.54533,E,0.214,,211120,,,A*76
$GPVTG,,T,,M,0.214,N,0.397,K,A*29
$GPGGA,080521.00,1046.16838,N,10639.54533,E,1,03,17.42,15.3,M,-2.6,M,,*41
$GPGSA,A,3,32,29*32
$GPGSV,3,1,12,01,01,305,,10,72,140,,1$GPRMC,080522.00,A,1046.16808,N,10639.54496,E,0.246,,211120,,,A*7F
$GPVTG,,T,,M,0.246,N,0.456,K,A*24
$GPGGA,080522.00,1046.16808,N,10639.54496,E,1,03,17.44,15.2,M,-2.6,M,,*48
$GPGSA,A,3,32,29,25,,,,,,,,,,20.54,17.44,10.84*37
$GPGSV,3,1,12,01,01,305,,10,72,140,,12,01,030639.54496,E,080522.00,A,A*67
$GPRMC,080523.00,A,1046.16758,N,10639.54425,E,0.504,,211120,,,A*7D
$GPVTG,,T,,M,0.504,N,0.933,K,A*2B
$GPGGA,080523.00,1046.16758,N,10639.54425,E,1,03,17.47,15.0,M,-2.6,M,,*4A
$GPG44,,25,24,040,20*72
$GPGSV,3,3,12,26,61,201,19,29,11,098,27,31,51,3$GPRMC,080524.00,A,1046.16749,N,10639.54412,E,0.588,,211120,,,A*7A
$GPVTG,,T,,M,0.588,N,1.088,K,A*27
$GPGGA,080524.00,1046.16749,N,10639.54412,E,1,03,17.50,*36
$GPGSV,3,1,12,01,01,305,,10,72,140,,1$GPRMC,080525.00,A,1046.16780,N,10639.54453,E,0.293,,211120,,,A*76
$GPVTG,,T,,M,0.293,N,0.544,K,A*2E
$GPGGA,080525.00,1046.16780,N,10639.54453,E,1,03,17.53,15.0,M,-2.6,M,,*4D
$GPGSA,A,3,32,29,25,,,,,,,,,,20.63,17.53,10.88*39
$GPGSV,3,1,12,01,01,305,,10,7,,25,24,040,19*78
$GPGSV,3,3,12,26,61,2$GPRMC,080526.00,A,1046.16796,N,10639.54462,E,0.193,,211120,,,A*73
$GPVTG,,T,,M,0.193,N,0.357,K,A*29
$GPGGA,00526.00,1046.16796,N,10639.54462,E,1,03,17.56,14.9,M,-2.6,M,,*4644,,25,24,040,20*72
$GPGSV,3,3,12,26,61,201,19,29,11,098,27,31,51,315$GPRMC,080527.00,A,1046.16781,N,10639.54437,E,0.224,,211120,,,A*7B
$GPVTG,,T,,M,0.224,N,0.414,K,A*26
$GPGGA,080527.00,1046.16781,N,10639.54437,E,1,03,17.58,*38
$GPGSV,3,1,12,01,01,305,20,10,72,140,$GPRMC,080528.00,A,1046.16805,N,10639.54471,E,0.441,,211120,,,A*70
$GPVTG,,T,,M,0.441,N,0.816,K,A*2D
$GPGGA,080528.00,1046.16805,N,10639.54471,E,1,03,17.61,14.9,M,-2.6,M,,*4B
$GPGSA,A,3,32,29,25,,,,,,,,,,20.73,17.61,10.93*33
$GPGSV,3,1,12,01,01,305,21,10,72,140,,12,01,037,,16,12,20444,,25,24,040,20*72
$GPGSV,3,3,12,26,61,201,19,29,11,098,27,31,51,315,,32,$GPRMC,080529.00,A,1046.16881,N,10639.54566,E,1.137,,211120,,,A*7F
$GPVTG,,T,,M,1.137,N,2.105,K,A*21
$GPGGA,080529.00,1046.16881,N,10639.54566,E,1,03,17.64,14.9,M,-2.6,M,,*44
$GPGSA,A,3,32,29,25,,,,,,,,,,20.76,17.64,10.95*35
$GPGSV,3,1,12,01,044,,25,24,040,21*73
$GPGSV,3,3,12,26,61,201,19,29,11,098,27,31,51,315,,32,$GPRMC,080530.00,A,1046.16879,N,10639.54564,E,1.098,,211120,,,A*76
$GPVTG,,T,,M,1.098,N,2.033,K,A*21
$GPGGA,080530.00,1046.16879,N,10639.54564,E,1,03,17.67,14.9,M,-2.6,M,,*4A
$GPGSA,A,3,32,29,25,,,,,,,,,,20.79,17.67,10.96*3A
$GPGSV,3,1,12,01,01,305,19,10,72,140,,12,01,037,,16,12,204,*73
$GPGSV,3,2,12,1$GPRMC,080531.00,A,1046.16861,N,10639.54536,E,1.127,,211120,,,A*7C
$GPVTG,,T,,M,1.127,N,2.088,K,A*24
$GPGGA,080531.00,1046.16861,N,10639.54536,E,1,03,17.70,14.7,M,-2.6,M,,*4D
$GPGSA,A,3,32,29,25,,,,,,,,,,20.82,17.70,10.98*36
$GPGSV,3,1,12,01,01,305,16,10,72,140,,12,01,037,44,,25,24,040,21*73
$GPGSV,3,3,12,26,61,201,20,29,11,098,27,31,51,315,,32,$GPRMC,080532.00,A,1046.16837,N,10639.54484,E,0.740,,211120,,,A*72
$GPVTG,,T,,M,0.740,N,1.371,K,A*24
$GPGGA,080532.00,1046.16837,N,10639.54484,E,1,03,17.72,14.4,M,-2.6,M,,*44
$GPGSA,A,3,32,29,25,,,,,,,,,,20.86,17.72,10.99*31
$GPGSV,3,1,12,01,01,305,14,10,72,140,,12,01,144,,25,24,040,21*73
$GPGSV,3,3,12,26,61,201,19,29,11,098,27,31,51,315,,3$GPRMC,080533.00,A,1046.16835,N,10639.54470,E,0.672,,211120,,,A*7A
$GPVTG,,T,,M,0.672,N,1.244,K,A*23
$GPGGA,080533.00,1046.16835,N,10639.54470,E,1,03,17.75,14.1,M,-2.6,M,,*4E
$GPGSA,A,3,32,29,25,,,,,,,,,,20.89,17.75,11.0*39
$GPGSV,3,1,12,01,01,305,12,10,72,140,,12,01,037,,16,12,204,13*7A
$GPG0639.54470,E,080533.00,A,A*61
$GPRMC,080534.00,A,1046.16898,N,10639.54561,E,1.362,,211120,,,A*7E
$GPVTG,,T,,M,1.362,N,2.522,K,A*22
$GPGGA,080534.00,1046.16898,N,10639.54561,E,1,03,17.78,14.3,M,-2.6,M,,*40
$GPGSA,A,*3D
$GPGSV,3,1,12,01,01,305,10,10,72,140,,12,01,037,,16,12,204,12*79
$GPG,144,,25,24,040,21*73
$GPGSV,3,3,12,26,61,201,19,29,$GPRMC,080535.00,A,1046.16916,N,10639.54577,E,1.573,,211120,,,A*79
$GPVTG,,T,,M,1.573,N,2.914,K,A*2D
$GPGGA,080535.00,1046.16916,N,10639.54577,E,1,03,17.81,14.1,M,-2.6,M,,*45
$GPGSA,A,3,32,29,25,,,,,,,,,,20.95,17.81,11.04*3A,144,,25,24,040,21*73
$GPGSV,3,3,12,26,61,201,19,29,11,098,27,31,51,315,,32,43,030,30*7A
$GPGLL,1046.16$GPRMC,080536.00,A,1046.16918,N,10639.54577,E,1.315,,211120,,,A*72
$GPVTG,,T,,M,1.315,N,2.435,K,A*25
$GPGGA,080536.00,1046.16918,N,10639.54577,E,1,03,17.84,14.0,M,-2.6,M,,*4C
$GPGSA,A,3,32,29,25,,,,,,,,,,20.99,17.84,11.06*31
$GPGSV,3,1,12,01,01,304,09,10,72,140,,12,01,037,,16,12,204,08*7B
$GPGSV,3,0639.54577,E,080536.00,A,A*6C
$GPRMC,080537.00,A,1046.16958,N,10639.54646,E,1.406,,211120,,,A*73
$GPVTG,,T,,M,1.406,N,2.603,K,A*27
$GPGGA,080537.00,1046.16958,N,10639.54646,E,1,03,17.87,14.4,M,-2.6,M,,*4F
$GPGSA,A,3,32,29,25,,,,,,,,,,21.02,17.87,11.07*30
$GPGSV,3,1,12,01,01,304,138,144,,25,24,040,22*70
$GPGSV,3,3,12,26,61,201,19,29,11,09$GPRMC,080538.00,A,1046.17010,N,10639.54746,E,1.564,,211120,,,A*7C
$GPVTG,,T,,M,1.564,N,2.897,K,A*21
$GPGGA,080538.00,1046.17010,N,10639.54746,E,1,03,17.90,15.1,M,-2.6,M,,*47
$GPGSA,A,3,32,29,25,,,,,,,,,,21.05,17.90,11.09*3F
$GPGSV,3,1,12,01,01,304,12,10,72,140,,144,,25,24,040,22*70
$GPGSV,3,3,12,26,61,201,1$GPRMC,080539.00,A,1046.17052,N,10639.54810,E,1.909,,211120,,,A*70
$GPVTG,,T,,M,1.909,N,3.535,K,A*22
$GPGGA,080539.00,1046.17052,N,10639.54810,E,1,03,17.93,15.4,M,-2.6,M,,*4A
$GPGSA,A,3,32,29,25,,,,,,,,,,21.09,17.93,11.10*38
$GPGSV,3,1,12,01,01,304,10,10,72,140,20,12,01,037,,16,12,204,08*71
$GPGSV,3,2,12,18,03,159,,22,00,323,,23,38,144,,25,24,040,22*70
$GPGSV,3$GPRMC,080540.00,A,1046.17032,N,10639.54775,E,1.528,,211120,,,A*7B
$GPVTG,,T,,M,1.528,N,2.831,K,A*25
$GPGGA,080540.00,1046.17032,N,10639.54775,E,1,03,17.96,15.3,M,-2.6,M,,*4C
$GPGSA,A,3,32,29,25,,,,,,,,,,21.12,17.96,11.12*35
$GPGSV,3,1,12,01,01,304,09,10,72,140,17,12,01,037,,16,12,204,08*7D
$GPGSV,3,2,12,18,03,159,,22,038,144,,25,24,040,21*73
$GPGSV,3,3,12,26,61,201,19,29,11,098,27,31,51,315,17,3$GPRMC,080541.00,A,1046.17051,N,10639.54803,E,1.506,,211120,,,A*7D
$GPVTG,,T,,M,1.506,N,2.788,K,A*24
$GPGGA,080541.00,1046.17051,N,10639.54803,E,1,03,17.98,15.3,M,-2.6,M,,*48
$GPGSA,A,3,32,29,25,,,,,,,,,,21.15,17.98,11.14*3A
$GPGSV,3,1,12,01,01,304,09,10,72,140,12,12,01,037,,16,38,144,,25,24,040,22*70
$GPGSV,3,3,12,$GPRMC,080542.00,A,1046.17079,N,10639.54854,E,1.346,,211120,,,A*74
$GPVTG,,T,,M,1.346,N,2.493,K,A*2F
$GPGGA,080542.00,1046.17079,N,10639.54854,E,1,03,18.01,15.7,M,-2.6,M,,*48
$GPGSA,A,3,32,29,25,,,,,,,,,,21.19,18.01,11.15*38
$GPGSV,3,1,12,01,01,304,09,10,72,140,,12,01,037,,16,12,204,08*7B
$GPGSV,3,2,12,18,03,159,,22,00,323,,23,38,144,,25,24$GPRMC,080543.00,A,1046.17105,N,10639.54928,E,1.875,,211120,,,A*7E
$GPVTG,,T,,M,1.875,N,3.472,K,A*2A
$GPGGA,080543.00,1046.17105,N,10639.54928,E,1,03,18.04,16.4,M,-2.6,M,,*4C
$GPGSA,A,3,32,29,25,,,,,,,,,,21.22,18.04,11.17*37
$GPGSV,3,1,12,01,01,304,,10,72,140,,12,01,037,,16,12,204,08*72
$GPGSV,3,2,12,18,03,44,,25,24,040,21*73
$GPGSV,3,3,12,26,61,201,19,29,11,098,26,31,51,315,,32,43,030,30*7B
$GPGLL,1046.17105,N,10639.54928,E$GPRMC,080544.00,A,1046.17090,N,10639.54898,E,1.716,,211120,,,A*74
$GPVTG,,T,,M,1.716,N,3.178,K,A*2F
$GPGGA,080544.00,1046.17090,N,10639.54898,E,1,03,18.07,16.2,M,-2.6,M,,*49
$GPGSA,A,3,32,29,25,,,,,,,,,,21.25,18.07,11.18*3C,144,,25,24,040,21*71
$GPGSV,3,3,12,26,61,201,19,29,11,098,26,31,51,315,,32,43,030,29*73
$GPGLL,1046.17090,N,10639.548$GPRMC,080545.00,A,1046.17092,N,10639.54933,E,1.631,,211120,,,A*73
$GPVTG,,T,,M,1.631,N,3.021,K,A*26
$GPGGA,080545.00,1046.17092,N,10639.54933,E,1,03,18.10,16.7,M,-2.6,M,,*49
$GPGSA,A,3,32,29,25,,,,,,,,,,21.29,18.10,11.20*3D
$GPGSV,3,1,12,01,01,304,20,10,71,10639.54933,E,080545.00,A,A*6E
$GPRMC,080546.00,A,1046.17053,N,10639.54909,E,1.076,,211120,,,A*71
$GPVTG,,T,,M,1.076,N,1.993,K,A*21
$GPGGA,080546.00,1046.17053,N,10639.54909,E,1,03,18.13,1*36
$GPGSV,3,1,12,01,01,304,20,10,71,141,20,12,00,037,,16,12,204,38,144,,25,24,040,20*76
$G$GPRMC,080547.00,A,1046.17054,N,10639.54912,E,1.069,,211120,,,A*73
$GPVTG,,T,,M,1.069,N,1.979,K,A*2B
$GPGGA,080547.00,1046.17054,N,10639.54912,E,1,03,18.16,17.1,M,-2.6,M,,*43
$GPGSA,A,3,32,29,25,,,,,,,,,,21.35,18.16,11.23*35
$GPGSV,3,1,12,01,01,304,21,10,71,141,17,12,00,037,,,144,,25,24,040,21*73
$GPGSV,3,3,12,26,61,201,19,29,11,098,26,31,51$GPRMC,080548.00,V,,,,,,,211120,,,N*7D
$GPVTG,,,,,,,,,N*30
$GPGGA,080548.00,,,,,0,03,18.19,,,,,,*65
$GPGSA,A,1,32,29,25,,,,,,,,,,21.39,18.19,11.25*32
$GPGSV,3,1,12,01,01,304,21,10,71,141,14,12,00,037,,16,12,204,13*7D
$GPGSV,3,2,12,18,03,159,,22,00,323,,23,38,144,,25,24,040,21*73
$GPGSV,3,3,12,26,61,201$GPRMC,080549.00,V,,,,,,,211120,,,N*7C
$GPVTG,,,,,,,,,N*30
$GPGGA,080549.00,,,,,0,03,18.22,,,,,,*6C
$GPGSA,A,1,32,29,25,,,,,,,,,,21.42,18.22,11.26*35
$GPGSV,3,1,12,01,01,304,21,10,71,141,13,12,00,037,,16,12,204,*78SV,3,2,12,18,03,159,24,22,00,323,,23,38,144,20,25,2$GPRMC,080550.00,V,,,,,,,211120,,,N*74
$GPVTG,,,,,,,,,N*30
$GPGGA,080550.00,,,,,0,03,18.25,,,,,,*63
$GPGSA,A,1,32,29,25,,,,,,,,,,21.46,18.25,11.28*38
$GPGSV,3,1,12,01,01,304,21,10,71,141,25,12,00,037,,16,12,204,*7D
$GPGSV,3,2,12,18,03,159,,22,00,323,21,23,38,144,,25,24,040,23*72
$GPGSV,3,3,12,26,61,201,20,223,32,43,030,33*72
$GPGLL,,,,,080550.00,V,N*42
$GPRMC,080551.00,V,,,,,,,211120,,,N*75
$GPVTG,,,,,,,,,N*30
$GPGGA,080551.00,,,,,0,03,18.28,,,,,,*6F
$GPGSA,A,1,32,29,25,,,,,,,,,,21.49,18.28,11.30*33
$GPGSV,3,1,12,01,01,304,21,10,71,141,,12,00,037,,16,12,204,*7A
$GPGSV,3,2,12,18,03,158,23,22,00,323,19,23,38,144,22,25,24,040,23*79
$GPGSV,3,3,12,26,61,201,21,29,11,098,27,31,51$GPRMC,080552.00,V,,,,,,,211120,,,N*76
$GPVTG,,,,,,,,,N*30
$GPGGA,080552.00,,,,,0,02,27.75,,,,,,*69
$GPGSA,A,1,32,29,,,,,,,,,,,27.77,27.75,1.00*09
$GPGSV,3,1,12,01,01,304,22,10,71,141,,12,00,037,,16,12,204,21*7A
$GPGSV,3,2,12,18,03,158,20,22,00,323,,23,38,144,19,25,24,040,24*7D
$GPGSV,3,3,12,26$GPRMC,080553.00,V,,,,,,,211120,,,N*77
$GPVTG,,,,,,,,,N*30
$GPGGA,080553.00,,,,,0,02,27.74,,,,,,*69
$GPGSA,A,1,32,29,,,,,,,,,,,27.75,27.74,1.00*0A
$GPGSV,3,1,12,01,01,304,22,10,71,141,20,12,00,037,22,16,12,204,18*72
$GPGSV,3,2,12,18,03,158,,22,00,323,,23,38,144,,25,24,040,23*70
$GPGSV,3,3,12,26,61,201,21,29,11,098,28,31,51,315,,32,43,030,34*7A
$GPGLL,,,,,080553.00,V,N*41
$GPRMC,080554.00,V,,,,,,,211120,,,N*70
$GPVTG,,,,,,,,,N*30
$GPGGA,080554.00,,,,,0,02,27.72,,,,,,*68
$GPGSA,A,1,32,29,,,,,,,,,,,27.74,27.72,1.00*0D
$GPGSV,3,1,12,01,01,304,22,10,71,141,18,12,00,037,19,16,12,204,*78
$GPGSV,3,2,12,18,03,158,,22,00,323,,23,38,145,23,25,24,040,23*70
$GPGSV,3,3,12,26,61,201,22,29,11,098,28,31,51,315,,32,43,030$GPRMC,080555.00,V,,,,,,,211120,,,N*71
$GPVTG,,,,,,,,,N*30
$GPGGA,080555.00,,,,,0,02,27.71,,,,,,*6A
$GPGSA,A,1,32,29,,,,,,,,,,,27.73,27.71,1.00*09
$GPGSV,3,1,12,01,01,304,22,10,71,141,16,12,00,037,,16,12,204,*7E
$GPGSV,3,2,12,18,03,158,,22,00,323,,23,38,145,,25,24,040,23*71
$GPGSV,3,3,12,26,61,201,21,29,11,098,28,31,51,315,22,32,43,030,33*$GPRMC,080556.00,V,,,,,,,211120,,,N*72
$GPVTG,,,,,,,,,N*30
$GPGGA,080556.00,,,,,0,02,27.69,,,,,,*60
$GPGSA,A,1,32,29,,,,,,,,,,,27.71,27.69,1.00*02
$GPGSV,3,1,12,01,01,304,22,10,71,141,,12,00,037,,16,12,204,*79
$GPGSV,3,2,12,18,03,158,,22,00,323,,23,38,145,,25,24,040,23*71
$GPGSV,3,3,12,26,61,201,21,29,11,098,28,31,51,315,23,32,43,030,34*7B
$GPGLL,,,,,080556.00,V,N*44
$GPRMC,080557.00,V,,,,,,,211120,,,N*73
$GPVTG,,,,,,,,,N*30
$GPGGA,080557.00,,,,,0,02,27.68,,,,,,*60
$GPGSA,A,1,32,29,,,,,,,,,,,27.70,27.68,1.00*02
$GPGSV,3,1,12,01,01,304,21,10,71,141,,12,00,037,,16,12,204,*7A
$GPGSV,3,2,12,18,03,158,,22,00,323,,23,38,145,,25,24,040,23*71
$GPGSV,3,3,12,26,61,201,21,29,11,098,28,31,51,315,19,32,43,030,33*75
$GPG$GPRMC,080558.00,A,1046.17042,N,10639.55008,E,0.476,,211120,,,A*72
$GPVTG,,T,,M,0.476,N,0.881,K,A*27
$GPGGA,080558.00,1046.17042,N,10639.55008,E,1,03,18.49,17.4,M,-2.6,M,,*46
$GPGSA,A,3,32,29,25,,,,,,,,,,21.73,18.49,11.41*39
$GPGSV,3,1,12,01,01,304,21,10,71,141,,12,00,037,,1645,,25,24,040,23*71
$GPGSV,3,3,12,26,61,201,21,29,11,098,28,31,51,315,16,32,43,030,33$GPRMC,080559.00,A,1046.17073,N,10639.55072,E,0.237,,211120,,,A*7F
$GPVTG,,T,,M,0.237,N,0.439,K,A*2B
$GPGGA,080559.00,1046.17073,N,10639.55072,E,1,03,18.53,17.9,M,-2.6,M,,*4E
$GPGSA,A,3,32,29,25,,,,,,,,,,21.77,18.53,11.43*34
$GPGSV,3,1,12,01,01,304,21,10,71,141,,12,00,037,,16,12,204,22*7A
$GPGSV,3,2$GPRMC,080600.00,A,1046.17095,N,10639.55126,E,0.177,,211120,,,A*7F
$GPVTG,,T,,M,0.177,N,0.328,K,A*2B
$GPGGA,080600.00,1046.17095,N,10639.55126,E,1,03,18.56,18.3,M,-2.6,M,,*49
$GPGSA,A,3,32,29,25,,*3F
$GPGSV,3,1,12,01,01,304,20,10,71,141,,12,00,037,,16,12,204,18*7,145,,25,24,040,22*70
$GPGSV,3,3,12,26,61,201,21,29,11,098,28,3$GPRMC,080601.00,A,1046.17091,N,10639.55151,E,0.198,,211120,,,A*7B
$GPVTG,,T,,M,0.198,N,0.366,K,A*20
$GPGGA,080601.00,1046.17091,N,10639.55151,E,1,03,18.59,18.8,M,-2.6,M,,*4845,,25,24,040,22*70
$GPGSV,3,3,12,26,61,201,21,29,11,098,29,31,51,315,21,32,43,030,33*7F
$GPGLL,1046.17091,N,10639.55151,E,080601.00,A,A*63
$GPRMC,080602.00,A,1046.17159,N,10639.55262,E,0.675,,211120,,,A*7A
$GPVTG,,T,,M,0.675,N,1.251,K,A*20
$GPGGA,080602.00,1046.17159,N,10639.55262,E,1,03,18.62,19.2,M,-2.6,M,,*4E
$GPGSA,A,3,32,45,,25,24,040,21*73
$GPGSV,3,3,12,26,61,201,21,29,11,098,28,31,51$GPRMC,080603.00,A,1046.17154,N,10639.55270,E,0.205,,211120,,,A*76
$GPVTG,,T,,M,0.205,N,0.380,K,A*2F
$GPGGA,080603.00,1046.17154,N,10639*3B
$GPGSV,3,1,12,01,01,304,,10,71,141,,139.55270,E,080603.00,A,A*69
$GPRMC,080604.00,A,1046.17164,N,10639.55297,E,0.171,,211120,,,A*7B
$GPVTG,,T,,M,0.171,N,0.317,K,A*21
$GPGGA,080604.00,1046.17164,N,10639.55297,E,1,02,9.54,19.6,M,-2.6,M,,*7C
$GPGSA,A,2,32,25,,,,,,,,,,,9.60,9.54,1.00*03
$GPGSV,3,1,12,01,01,304,,10,71,141,,12,4,040,19*78
$GPGSV,3,3,12,26,61,201,18,29$GPRMC,080605.00,A,1046.17199,N,10639.55353,E,0.331,,211120,,,A*77
$GPVTG,,T,,M,0.331,N,0.614,K,A*21
$GPGGA,080605.00,1046.17199,N,10639.55353,E,1,02,9.55,19.9,M,-2.6,M,,*78
$GPGSA,A,2,32,25,,,,,,,,,,,9.60,9.55,1.00*02
$GPGSV,3,1,12,04,040,19*78
$GPGSV,3$GPRMC,080606.00,A,1046.17243,N,10639.55417,E,0.419,,211120,,,A*7A
$GPVTG,,T,,M,0.419,N,0.776,K,A*29
$GPGGA,080606.00,1046.17243,N,10639.55417,E,1,02,9.56,20.0,M,-2.6,M,,*78
$GPGSA,A,2,32,25,,,,,,,,,,,9.61,9.56,1.00*00
$GPGSV,3,1,12,01,01,304,,10,71,141,,12,00,037,,16,12,204,*79
$GPGSV,17,E,080606.00,A,A*6E
$GPRMC,080607.00,A,1046.17385,N,10639.55630,E,1.244,,211120,,,A*78
$GPVTG,,T,,M,1.244,N,2.303,K,A*22
$GPGGA0607.00,1046.17385,N,10639.55630,E,1,02,9.57,20.4,040,20*72
$GPGSV,3,3,12,26,61,201,20,29,11,098,27,31,51,315,12,32$GPRMC,080608.00,A,1046.17430,N,10639.55695,E,0.961,,211120,,,A*7C
$GPVTG,,T,,M,0.961,N,1.780,K,A*23
$GPGGA,080608.00,1046.17430,N,10639.55695,E,1,02,9.57,20.5,M,-2.6,M,,*78
$GPGSA,A,2,32,25,,,,,,,,,,,9.63,9.57,1.00*03
$GPGSV4,040,20*72
$GPGSV,3,3,12,26,61,201,20,29,11,09$GPRMC,080609.00,A,1046.17460,N,10639.55748,E,0.949,,211120,,,A*73
$GPVTG,,T,,M,0.949,N,1.758,K,A*2C
$GPGGA,080609.00,1046.17460,N,10639.55748,E,1,02,9.58,20.9,M,-2.6,M,,*7E
$GPGSA,A,2,32,25,,,,,,,,,,,9.63,9.58,1.00*0C
$GPGSV,3,1,12,01,01,304,,10,71,141,,12,00,037,,16,12,204,*79
$GPGSV,3,2,12,48,E,080609.00,A,A*6F
$GPRMC,080610.00,A,1046.17522,N,10639.55885,E,1.224,,211120,,,A*73
$GPVTG,,T,,M,1.224,N,2.267,K,A*27
$GPGGA,080610.00,1046.17522,N,10639.55885,E,1,02,9.59,21.5,M,-2.6,M,,*73
$GPGSA,A,2,32,25,,,,,,,,,,,9.64,9.59,1.00*0A
GPGSV,3,1,12,01,01,304,,10,714,040,20*72
$GPGSV,3,3,12,26,61,201,20,$GPRMC,080611.00,A,1046.17562,N,10639.55984,E,1.030,,211120,,,A*71
$GPVTG,,T,,M,1.030,N,1.907,K,A*2E
$GPGGA,00611.00,1046.17562,N,10639.55984,E,1,02,9.59,22.0,M,-2.6,M,,*70,24,040,21*73
$GPGSV,3,3,12,26,61,201,20,29,11,098,27,31,51,315$GPRMC,080612.00,A,1046.17649,N,10639.56155,E,1.791,,211120,,,A*73
$GPVTG,,T,,M,1.791,N,3.318,K,A*24
$GPGGA,080612.00,1046.17649,N,10639.56155,E,1,02,9.60,22.0,M,-2.6,M,,*74
$GPGSA,A,2,32,25,,,,,,,,,,,9.65,9.60,1.00*01
$GPGSV,3,1,12,01,01,304,,10,71,141,16,12,00,037,,16,12,204,*7E
$GPGSV,3,2,12,1855,E,080612.00,A,A*65
$GPRMC,080613.00,A,1046.17674,N,10639.56190,E,1.312,,211120,,,A*7A
$GPVTG,,T,,M,1.312,N,2.430,K,A*27
$GPGGA,080613.00,1046.17674,N,10639.56190,E,1,02,9.61,22.3,M,-2.6,M,,*70
$GPGSA,A,2,32,25,,,,,,,,,,,9.66,9.61,1.00*03
$GPGSV,3,1,12,01,01,304,,10,71,141,12,12,00,037,,16,12,204,*7A
$GPGSV,3,2,12,18,03,158,,22,00,323,,23,38,145,,25,24,040,21*73
$GPGSV,3,3,12,26,61,201,19,29,11,098,27,31,51,315,,32,43,0$GPRMC,080614.00,V,,,,,,,211120,,,N*77
$GPVTG,,,,,,,,,N*30
$GPGGA,080614.00,,,,,0,02,9.62,,,,,,*52
$GPGSA,A,1,32,25,,,,,,,,,,,9.67,9.62,1.00*02
$GPGSV,3,1,12,01,01,304,,10,71,141,12,12,00,037,,16,12,204,*7A
$G,33*76
$GPGLL,,,,,080614.00,V,N*41
$GPRMC,080615.00,V,,,,,,,211120,,,N*76
$GPVTG,,,,,,,,,N*30
$GPGGA,080615.00,,,,,0,02,9.62,,,,,,*53
$GPGSA,A,1,32,25,,,,,,,,,,,9.68,9.62,1.00*0D
$GPGSV,3,1,12,01,01,304,,10,71,141,12,12,00,037,,16,12,204,*7A
$GPGSV,3,2,12,18,03,158,,22,00,323,,23,38,145,,25,24,040,22*70
$GPGSV,3,3,12,26,61,201,20,29,11,098,28,31,51,315,,32,43,030,32*7D
$GPGLL,,,,,080615.00,V,N*40
$GPRMC,080616.00,V,,,,,,,211120,,,N*75
$GPVTG,,,,,,,,,N*30
$GPGGA,080616.00,,,,,0,02,9.63,,,,,,*51
$GPGSA,A,1,32,25,,,,,,,,,,,9.68,9.63,1.00*0C
$GPGSV,3,1,12,01,01,304,,10,71,141,13,12,00,037,,16,12,204,*7B
$GPGSV,3,2,12,18,03,158,,22,00,323,,23,38,145,,25,24,040,22*70
$GPGSV,3,3,12,26,61,201,19,29,11,098,27,31,51,315,,32,43,030,31*7B
$GPGLL,,,,,080616.0$GPRMC,080617.00,V,,,,,,,211120,,,N*74
$GPVTG,,,,,,,,,N*30
$GPGGA,080617.00,,,,,0,02,9.64,,,,,,*57
$GPGSA,A,1,32,25,,,,,,,,,,,9.69,9.64,1.00*0A
$GPGSV,3,1,12,01,01,304,,10,71,141,11,12,00,037,,16,12,204,*79
$GPGSV,3,2,12,18,03,158,,22,00,3,30*7A
$GPGLL,,,,,080617.00,V,N*42
$GPRMC,080618.00,V,,,,,,,211120,,,N*7B
$GPVTG,,,,,,,,,N*30
$GPGGA,080618.00,,,,,0,02,9.65,,,,,,*59
$GPGSA,A,1,32,25,,,,,,,,,,,9.70,9.65,1.00*03
$GPGSV,3,1,12,01,01,304,,10,71,141,,12,00,037,,16,12,204,*79
$GPGSV,3,2,12,18,03,158,23,22,00,323,,23,38,145,,25,24,040,22*71
$GPGSV,3,3,12,26,61,201,19,29,11,098,27,31,51,315,,32,43,030,30*7$GPRMC,080619.00,V,,,,,,,211120,,,N*7A
$GPVTG,,,,,,,,,N*30
$GPGGA,080619.00,,,,,0,02,9.65,,,,,,*58
$GPGSA,A,1,32,25,,,,,,,,,,,9.70,9.65,1.00*03
$GPGSV,3,1,12,01,01,304,,10,71,141,,12,00,037,,16,12,204,*79
$GPGSV,3,2,12,18,03,158,20,22,00,323,,23,38,145,,$GPRMC,080620.00,V,,,,,,,211120,,,N*70
$GPVTG,,,,,,,,,N*30
$GPGGA,080620.00,,,,,0,02,9.66,,,,,,*51
$GPGSA,A,1,32,25,,,,,,,,,,,9.71,9.66,1.00*01
$GPGSV,3,1,12,01,01,304,,10,71,141,,12,00,037,,16,12,204,20*7B
$GPGSV,3,2,12,18,03,158,18,22,030,31*71
$GPGLL,,,,,080620.00,V,N*46
$GPRMC,080621.00,V,,,,,,,211120,,,N*71
$GPVTG,,,,,,,,,N*30
$GPGGA,080621.00,,,,,0,02,9.67,,,,,,*51
$GPGSA,A,1,32,25,,,,,,,,,,,9.72,9.67,1.00*03
$GPGSV,3,1,12,01,01,304,21,10,71,141,,12,00,037,,16,12,204,*7A
$GPGSV,3,2,12,18,03,158,15,22,00,323,24,23,38,145,,25,24,040,22*72
$GPGSV,3,3,12,26,61,201,20,29,11,098,27,31,$GPRMC,080622.00,V,,,,,,,211120,,,N*72
$GPVTG,,,,,,,,,N*30
$GPGGA,080622.00,,,,,0,02,9.67,,,,,,*52
$GPGSA,A,1,32,25,,,,,,,,,,,9.73,9.67,1.00*02
$GPGSV,3,1,12,01,01,304,18,10,71,141,,12,00,037,,16,12,204,*70
$GPGSV,3,2,12,18,03,158,,22,00,323,22,23,38,145,,25,24,040,22*70
$GPGSV,3,3,12,26,61,201,20,29,11,098,27,31$GPRMC,080623.00,V,,,,,,,211120,,,N*73
$GPVTG,,,,,,,,,N*30
$GPGGA,080623.00,,,,,0,02,9.68,,,,,,*5C
$GPGSA,A,1,32,25,,,,,,,,,,,9.73,9.68,1.00*0D
$GPGSV,3,1,12,01,01,304,14,10,71,141,,12,00,037,,16,12,204,21*7F
$GPGSV,3,2,12,18,03,158,,22,00,323,22,23,38,145,,25,24,040,22*70
$GPGSV,3,3,12,26,61,20$GPRMC,080624.00,V,,,,,,,211120,,,N*74
$GPVTG,,,,,,,,,N*30
$GPGGA,080624.00,,,,,0,02,9.69,,,,,,*5A
$GPGSA,A,1,32,25,,,,,,,,,,,9.74,9.69,1.00*0B
$GPGSV,3,1,12,01,01,304,12,10,71,141,,12,00,037,,16,12,204,18*73
$GPGSV,3,2,12,18,03,158,19,22,00,323,21,23,38,145,,25,24,040,22*7B
$GPGSV,3,3,12,26,61,201,21,29,11,098,27,31,51,315,13,32,43,030,30*73
$GPGLL,,,,,080624$GPRMC,080625.00,A,1046.17641,N,10639.55905,E,0.181,,211120,,,A*77
$GPVTG,,T,,M,0.181,N,0.335,K,A*2E
$GPGGA,080625.00,1046.17641,N,10639.55905,E,1,03,19.36,24.5,M,-2.6,M,,*46
