$GPRMC,034004.00,A,1046.18150,N,10639.56980,E,1.504,,221120,,,A*70
$GPVTG,,T,,M,1.504,N,2.785,K,A*2B
$GPGGA,034004.00,1046.18150,N,10639.56980,E,1,03,13.21,21.5,M,-2.6,M,,*43
$GPGSA,A,3,24,15,05,,,,,,,,,,14.55,13.21,6.11*07
$GPGSV,3,1,11,05,06,099,28,10,12,318,,12,15,137,15,15,24,030,25*7A
$GPGSV,3,2,11,18,71,328,25,20,34,344,16,23,30,343,23,24,59,057,19*7F
$GPGSV,3,3,11,25,14,175,,29,27,199,,32,20,259,13*48
$GPGLL,1046.18150,N,10639.56980,E,034004.00,A,A*6B
$GPRMC,034005.00,A,1046.18118,N,10639.56955,E,1.493,,221120,,,A*7A
$GPVTG,,T,,M,1.493,N,2.765,K,A*2A
$GPGGA,034005.00,1046.18118,N,10639.56955,E,1,03,13.21,21.8,M,-2.6,M,,*4B
$GPGSA,A,3,24,15,05,,,,,,,,,,14.56,13.21,6.11*04
$GPGSV,3,1,11,05,06,099,28,10,12,318,,12,15,137,15,15,24,030,25*7A
$GPGSV,3,2,11,18,71,328,25,20,34,344,16,23,30,343,22,24,59,057,20*74
$GPGSV,3,3,11,25,14,175,,29,27,199,,32,20,259,13*48
$GPGLL,1046.18118,N,10639.56955,E,034005.00,A,A*6E
$GPRMC,034006.00,A,1046.18090,N,10639.56907,E,1.612,,221120,,,A*74
$GPVTG,,T,,M,1.612,N,2.986,K,A*22
$GPGGA,034006.00,1046.18090,N,10639.56907,E,1,03,13.22,22.1,M,-2.6,M,,*47
$GPGSA,A,3,24,15,05,,,,,,,,,,14.56,13.22,6.11*07
$GPGSV,3,1,11,05,06,099,28,10,12,318,,12,15,137,12,15,24,030,24*7C
$GPGSV,3,2,11,18,71,328,24,20,34,344,15,23,30,343,22,24,59,057,20*76
$GPGSV,3,3,11,25,14,175,,29,27,199,,32,20,259,13*48
$GPGLL,1046.18090,N,10639.56907,E,034006.00,A,A*6B
$GPRMC,034007.00,A,1046.18067,N,10639.56877,E,1.565,,221120,,,A*78
$GPVTG,,T,,M,1.565,N,2.899,K,A*2E
$GPGGA,034007.00,1046.18067,N,10639.56877,E,1,03,13.22,22.5,M,-2.6,M,,*4C
$GPGSA,A,3,24,15,05,,,,,,,,,,14.57,13.22,6.12*05
$GPGSV,3,1,11,05,06,099,28,10,12,318,,12,15,137,12,15,24,030,24*7C
$GPGSV,3,2,11,18,71,328,24,20,34,344,14,23,30,343,22,24,59,057,19*7D
$GPGSV,3,3,11,25,14,175,,29,27,199,,32,20,259,13*48
$GPGLL,1046.18067,N,10639.56877,E,034007.00,A,A*64
$GPRMC,034008.00,A,1046.18046,N,10639.56832,E,1.438,,221120,,,A*7C
$GPVTG,,T,,M,1.438,N,2.663,K,A*2C
$GPGGA,034008.00,1046.18046,N,10639.56832,E,1,03,13.23,23.0,M,-2.6,M,,*44
$GPGSA,A,3,24,15,05,,,,,,,,,,14.57,13.23,6.12*04
$GPGSV,3,1,11,05,06,099,29,10,12,318,,12,15,137,14,15,24,030,24*7B
$GPGSV,3,2,11,18,71,328,25,20,34,344,15,23,30,343,23,24,59,057,19*7C
$GPGSV,3,3,11,25,14,175,,29,27,199,,32,20,259,07*4D
$GPGLL,1046.18046,N,10639.56832,E,034008.00,A,A*69
$GPRMC,034009.00,A,1046.17983,N,10639.56717,E,1.644,,221120,,,A*73
$GPVTG,,T,,M,1.644,N,3.044,K,A*27
$GPGGA,034009.00,1046.17983,N,10639.56717,E,1,03,13.23,23.4,M,-2.6,M,,*46
$GPGSA,A,3,24,15,05,,,,,,,,,,14.58,13.23,6.12*0B
$GPGSV,3,1,11,05,06,099,29,10,12,318,,12,15,137,13,15,24,030,24*7C
$GPGSV,3,2,11,18,71,328,25,20,34,344,16,23,30,343,22,24,59,057,19*7E
$GPGSV,3,3,11,25,14,175,,29,27,199,,32,20,259,07*4D
$GPGLL,1046.17983,N,10639.56717,E,034009.00,A,A*6F
$GPRMC,034010.00,A,1046.17944,N,10639.56672,E,1.630,,221120,,,A*71
$GPVTG,,T,,M,1.630,N,3.019,K,A*2C
$GPGGA,034010.00,1046.17944,N,10639.56672,E,1,03,13.24,24.2,M,-2.6,M,,*41
$GPGSA,A,3,24,15,05,,,,,,,,,,14.58,13.24,6.12*0C
$GPGSV,3,1,11,05,06,099,29,10,12,318,,12,15,137,09,15,24,030,24*77
$GPGSV,3,2,11,18,71,328,25,20,34,344,18,23,30,343,22,24,59,057,20*7A
$GPGSV,3,3,11,25,14,175,,29,27,199,,32,20,259,07*4D
$GPGLL,1046.17944,N,10639.56672,E,034010.00,A,A*6E
$GPRMC,034011.00,A,1046.17885,N,10639.56576,E,1.835,,221120,,,A*70
$GPVTG,,T,,M,1.835,N,3.399,K,A*2C
$GPGGA,034011.00,1046.17885,N,10639.56576,E,1,03,13.24,24.7,M,-2.6,M,,*4E
$GPGSA,A,3,24,15,05,,,,,,,,,,14.59,13.24,6.12*0D
$GPGSV,3,1,11,05,06,099,29,10,12,318,,12,15,137,08,15,24,030,24*76
$GPGSV,3,2,11,18,71,328,24,20,34,344,18,23,30,343,23,24,59,057,20*7A
$GPGSV,3,3,11,25,14,175,,29,27,199,,32,20,259,07*4D
$GPGLL,1046.17885,N,10639.56576,E,034011.00,A,A*64
$GPRMC,034012.00,A,1046.17855,N,10639.56534,E,1.759,,221120,,,A*7D
$GPVTG,,T,,M,1.759,N,3.258,K,A*25
$GPGGA,034012.00,1046.17855,N,10639.56534,E,1,03,13.25,25.3,M,-2.6,M,,*42
$GPGSA,A,3,24,15,05,,,,,,,,,,14.59,13.25,6.12*0C
$GPGSV,3,1,11,05,06,099,30,10,12,318,,12,15,137,09,15,24,030,24*7F
$GPGSV,3,2,11,18,71,328,24,20,34,344,19,23,30,343,23,24,59,057,19*71
$GPGSV,3,3,11,25,14,175,,29,27,199,,32,20,259,08*42
$GPGLL,1046.17855,N,10639.56534,E,034012.00,A,A*6C
$GPRMC,034013.00,A,1046.17806,N,10639.56451,E,1.787,,221120,,,A*7B
$GPVTG,,T,,M,1.787,N,3.310,K,A*2B
$GPGGA,034013.00,1046.17806,N,10639.56451,E,1,03,13.25,25.7,M,-2.6,M,,*43
$GPGSA,A,3,24,15,05,,,,,,,,,,14.60,13.25,6.12*06
$GPGSV,3,1,11,05,06,099,30,10,12,318,,12,15,137,,15,24,030,25*77
$GPGSV,3,2,11,18,71,328,24,20,34,344,20,23,30,343,23,24,59,057,20*71
$GPGSV,3,3,11,25,14,175,,29,27,199,,32,20,259,*4A
$GPGLL,1046.17806,N,10639.56451,E,034013.00,A,A*69
$GPRMC,034014.00,A,1046.17784,N,10639.56418,E,1.763,,221120,,,A*7E
$GPVTG,,T,,M,1.763,N,3.265,K,A*22
$GPGGA,034014.00,1046.17784,N,10639.56418,E,1,03,13.26,26.2,M,-2.6,M,,*49
$GPGSA,A,3,24,15,05,,,,,,,,,,14.60,13.26,6.12*05
$GPGSV,3,1,11,05,06,099,31,10,12,318,,12,15,137,,15,24,030,25*76
$GPGSV,3,2,11,18,71,328,25,20,34,344,20,23,30,343,23,24,59,057,20*70
$GPGSV,3,3,11,25,14,175,,29,27,199,07,32,20,259,*4D
$GPGLL,1046.17784,N,10639.56418,E,034014.00,A,A*66
$GPRMC,034015.00,A,1046.17720,N,10639.56312,E,1.891,,221120,,,A*7E
$GPVTG,,T,,M,1.891,N,3.502,K,A*26
$GPGGA,034015.00,1046.17720,N,10639.56312,E,1,03,13.26,26.3,M,-2.6,M,,*4A
$GPGSA,A,3,24,15,05,,,,,,,,,,14.61,13.26,6.12*04
$GPGSV,3,1,11,05,06,099,31,10,12,318,,12,15,137,,15,23,030,25*71
$GPGSV,3,2,11,18,71,328,25,20,34,344,21,23,30,343,24,24,59,057,20*76
$GPGSV,3,3,11,25,14,175,,29,27,199,08,32,20,259,*42
$GPGLL,1046.17720,N,10639.56312,E,034015.00,A,A*64
$GPRMC,034016.00,A,1046.17647,N,10639.56190,E,1.780,,221120,,,A*7A
$GPVTG,,T,,M,1.780,N,3.296,K,A*23
$GPGGA,034016.00,1046.17647,N,10639.56190,E,1,03,13.27,26.5,M,-2.6,M,,*46
$GPGSA,A,3,24,15,05,,,,,,,,,,14.61,13.27,6.13*04
$GPGSV,3,1,11,05,06,099,31,10,12,318,,12,15,137,,15,23,030,25*71
$GPGSV,3,2,11,18,71,328,25,20,34,344,20,23,30,343,25,24,59,057,20*76
$GPGSV,3,3,11,25,14,175,,29,27,199,12,32,20,259,17*4F
$GPGLL,1046.17647,N,10639.56190,E,034016.00,A,A*6F
$GPRMC,034017.00,A,1046.17572,N,10639.56045,E,1.850,,221120,,,A*75
$GPVTG,,T,,M,1.850,N,3.426,K,A*2C
$GPGGA,034017.00,1046.17572,N,10639.56045,E,1,03,13.27,26.2,M,-2.6,M,,*4C
$GPGSA,A,3,24,15,05,,,,,,,,,,14.62,13.27,6.13*07
$GPGSV,3,1,11,05,06,099,31,10,12,318,,12,15,137,,15,23,030,26*72
$GPGSV,3,2,11,18,71,328,26,20,34,344,20,23,30,343,25,24,59,057,20*75
$GPGSV,3,3,11,25,14,175,,29,27,199,14,32,20,259,15*4B
$GPGLL,1046.17572,N,10639.56045,E,034017.00,A,A*62
$GPRMC,034018.00,A,1046.19463,N,10639.60720,E,2.887,138.89,221120,,,A*68
$GPVTG,138.89,T,,M,2.887,N,5.347,K,A*36
$GPGGA,034018.00,1046.19463,N,10639.60720,E,1,04,1.90,63.9,M,-2.6,M,,*7F
$GPGSA,A,3,24,29,15,05,,,,,,,,,2.96,1.90,2.26*0D
$GPGSV,3,1,11,05,06,099,31,10,12,318,,12,15,137,,15,23,030,26*72
$GPGSV,3,2,11,18,71,328,27,20,34,344,19,23,30,343,25,24,59,057,20*7E
$GPGSV,3,3,11,25,14,175,,29,27,199,14,32,20,259,16*48
$GPGLL,1046.19463,N,10639.60720,E,034018.00,A,A*63
$GPRMC,034019.00,A,1046.20005,N,10639.62101,E,3.409,97.51,221120,,,A*5A
$GPVTG,97.51,T,,M,3.409,N,6.313,K,A*0E
$GPGGA,034019.00,1046.20005,N,10639.62101,E,1,04,1.91,75.5,M,-2.6,M,,*7D
$GPGSA,A,3,24,29,15,05,,,,,,,,,2.96,1.91,2.27*0D
$GPGSV,3,1,11,05,06,099,32,10,12,318,,12,15,137,,15,23,030,27*70
$GPGSV,3,2,11,18,71,328,26,20,34,344,19,23,30,343,25,24,59,057,21*7E
$GPGSV,3,3,11,25,14,175,,29,27,199,14,32,20,259,17*49
$GPGLL,1046.20005,N,10639.62101,E,034019.00,A,A*6B
$GPRMC,034020.00,A,1046.20240,N,10639.62726,E,3.643,80.63,221120,,,A*5B
$GPVTG,80.63,T,,M,3.643,N,6.747,K,A*00
$GPGGA,034020.00,1046.20240,N,10639.62726,E,1,04,1.91,81.6,M,-2.6,M,,*7F
$GPGSA,A,3,24,29,15,05,,,,,,,,,2.96,1.91,2.27*0D
$GPGSV,3,1,11,05,06,099,32,10,12,318,,12,15,137,,15,23,030,27*70
$GPGSV,3,2,11,18,71,328,26,20,34,344,20,23,30,343,25,24,59,057,20*75
$GPGSV,3,3,11,25,14,175,,29,27,199,14,32,20,259,17*49
$GPGLL,1046.20240,N,10639.62726,E,034020.00,A,A*61
$GPRMC,034021.00,A,1046.20346,N,10639.63002,E,3.433,78.15,221120,,,A*5E
$GPVTG,78.15,T,,M,3.433,N,6.358,K,A*09
$GPGGA,034021.00,1046.20346,N,10639.63002,E,1,04,1.91,84.1,M,-2.6,M,,*7B
$GPGSA,A,3,24,29,15,05,,,,,,,,,2.96,1.91,2.27*0D
$GPGSV,3,1,11,05,06,099,32,10,12,318,,12,15,137,18,15,23,030,27*79
$GPGSV,3,2,11,18,71,328,27,20,34,344,19,23,30,343,25,24,59,057,19*74
$GPGSV,3,3,11,25,14,175,,29,27,199,14,32,20,259,18*46
$GPGLL,1046.20346,N,10639.63002,E,034021.00,A,A*67
$GPRMC,034022.00,A,1046.20472,N,10639.63333,E,3.609,75.98,221120,,,A*5F
$GPVTG,75.98,T,,M,3.609,N,6.683,K,A*09
$GPGGA,034022.00,1046.20472,N,10639.63333,E,1,04,1.91,87.4,M,-2.6,M,,*7F
$GPGSA,A,3,24,29,15,05,,,,,,,,,2.96,1.91,2.27*0D
$GPGSV,3,1,11,05,06,099,33,10,12,318,,12,15,137,17,15,23,030,27*77
$GPGSV,3,2,11,18,71,328,27,20,34,344,20,23,30,343,24,24,59,057,19*7F
$GPGSV,3,3,11,25,14,175,,29,27,199,14,32,20,259,*4F
$GPGLL,1046.20472,N,10639.63333,E,034022.00,A,A*65
$GPRMC,034023.00,A,1046.20547,N,10639.63528,E,3.542,74.39,221120,,,A*53
$GPVTG,74.39,T,,M,3.542,N,6.560,K,A*01
$GPGGA,034023.00,1046.20547,N,10639.63528,E,1,04,1.91,89.0,M,-2.6,M,,*7F
$GPGSA,A,3,24,2.91,2.27*0D
$GPGSV,3,1,11,05,06,099,32,10,12,318,,12,15,137,15,15,24,344,18,23,30,343,24,24,59,057,17*$GPRMC,034027.00,A,1046.20720,N,10639.64121,E,2.911,75.47,221120,,,A*5D
$G
$GPGGA,034027.00,1046.20720,N,10639.64121,E,1,04,$GPRMC,034028.00,A,1046.20764,N,10639.64238,E,3.019,76.78,221120,,,A
$GPGGA,034028.00,1046.20764,N,10639.64238,E,1,04,1.91,97.2,M,-2.6,M,,$GPRMC,034029.00,A,1046.20754,N,10639.64276,E,2.384,7.91,2.27*0D
$GPGSV,3,1,11,05,06,099,30,10,12,318,17$GPRMC,034030.00,A,1046.20757,N,10639.64353,E,2.263,,221120,,,A*7D
D
$GPGSV,3,1,11,05,06,099,29,10,12$GPRMC,034031.00,A,1046.20654,N,10639.64146,E,1.524,,221120,,,A*7F
$GPVTG,1,,,,,,,,,,,,,99.99,99.99,99.99*30
$GPGSV,3,1,11,$GPRMC,045433.00,V,,,,,,,221120,,,N*7A
$GPVTG,,,,,,,,,N*30
$GPGGA,20,57,019,,23,50,017,,24,29,034,,25,32,146,*7D
$GPGSV,3,3,11,29,09,17$GPRMC,045434.00,V,,,,,,,221120,,,N*7D
$GPVTG,,,,,,,20,57,019,,23,50,017,,24,29,034,,25,32,146,*7D
$GPG$GPRMC,045435.00,V,,,,,,,221120,,,N*7C
$GPVTG,,,,,,,,,N*30
$GPGGA,5435.00,V,N*49
$GPRMC,045436.00,V,,,,,,,221120,,,N*7F
$GPVTG,,,,,,,,,N*30
$GPGGA,045436.00,,,,,0,00,99.99,,$GPRMC,045437.00,V,,,,,,,221120,,,N*7E
$GPVTG,,,,,,,,,N*30
$GPGGA,045437.00,,,,,0,00,99.99,,,,,,*67
$GPGSA,A,1,,,,,$GPRMC,045438.00,V,,,,,,,221120,,,N*71
$GPVTG,,,,,,,,,N*30
$GPGGA,045438.00,,,,,0,00,99.99,,,,,,*68
$GPGSA,A,1,,,,,,,,,,$GPRMC,045439.00,V,,,,,,,221120,,,N*70
$GPVTG,,,,,,,,,N*30
$GPGGA,045439.00,,,,,0,00,99.99,,,,,,*69
$GPGSA,A,1,,,,,,,$GPRMC,045440.00,V,,,,,,,221120,,,N*7E
$GPVTG,,,,,,,,,N*30
$GPGGA,045440.00,,,,,0,00,99.99,,,,,,*67
$GPGSA,$GPRMC,045441.00,V,,,,,,,221120,,,N*7F
$GPVTG,,,,1,,,,,,,,,,,,,99.99,99.99,99.99*30
$GPGSV,3,1,11,10,31,341,,12,25,1$GPRMC,045442.00,V,,,,,,,221120,,,N*7C
$GPVTG,,,,,,,,,N*30
$GPGGA,041,,,,,,,,,,,,,99.99,99.99,99.99*30
$GPGSV,3,1,11,10,$GPRMC,045443.00,V,,,,,,,221120,,,N*7D
$GPVTG,,,,,,,15,23,12,,,,,,,,,,3.45,3.31,1.00*04
$GPGSV,3,1,11,10,31,341,,12,25$GPRMC,045444.00,V,,,,,,,221120,,,N,2,11,20,57,019,17,23,50,017,19,24,29,034,,25,32,146,*73
$GPGSV,3,3,11,29,$GPRMC,045445.00,V,,,,,,,221120,,,N*7B
$GPVTG,,,,,3,2,11,20,57,019,18,23,50,017,21,24,29,034,,25,32,146,*77
$GPGSV,3$GPRMC,045446.00,A,1046.17487,N,10639.55284,E,0.686,,221120,,,A*70
$G1
$GPGSV,3,1,11,10,31,342,,12,25,102,30,15,08,056,25$GPRMC,045447.00,A,1046.17519,N,10639.55197,E,0.604,29,034,,25,32,146,*76
$GPGSV,3,3,11,29,09,173,,31,20,217,,32,27,296$GPRMC,045448.00,A,1046.17621,N,10629,034,,25,32,146,*76
$GPGSV,3,3,11,29,09,173,,31,20,217,,32,27,296,*43
$$GPRMC,045449.00,A,1046.17613,N,10639.55295,E,1.34$GPRMC,045450.00,A,1046.17641,N,10639.55265,E,1.088,,221120,,,A*79
$GPVTG,,T,,M,1.088,N,2.014,K,A*25
$GPGGA,045450.00,1046.17641,N,10639$GPRMC,045451.00,A,1046.17661,N,10639.55233,E,1.426,,221120,,,A*79
$GPVTG,,T,,M,1.426,N,2.642,K,A*20
$G$GPRMC,045452.00,A,1046.17661,N,10639.55248,E,0.847,,221120,,,A*7C
$GPVTG,,T,,M,0.847,N,1.569,K,A*23
$GPRMC,045453.00,A,1046.17627,N,10639.55251,E,0.414,,221120,,,A*7D
$GPVTG,5453.00,1046.17627,N,10639.55251,E,1,04,3.02,12.8,$GPRMC,045454.00,A,1046.17580,N,10639.55272,E,0.893,,221120,,,A*76
5454.00,1046.17580,N,10639.55272,E,1,04,3.02,12.9,M,-2.6,M,,*7C
$GPGS$GPRMC,045455.00,V,,,,,,,221120,,,N*7A
$GPVTG,,,,,,,,2,11,20,57,019,17,23,50,017,20,24,29,034,,25,32,146$GPRMC,045456.00,V,,,,,,,221120,,,N*79
$GPVTG,,,,,,,,,N*30
$GPGGA,,2,11,20,57,019,17,23,50,017,21,24,$GPRMC,045457.00,A,1046.17576,N,10639.55343,E,1.040,,221120,,,A*78
$GPVTG,5
$GPGSV,3,1,11,10,31,342,20,12,25,102,29,15,08,0$GPRMC,045458.00,A,1046.17604,N,10639.55214,E,1.030,,221120,,,A*75
,24,29,034,,25,32,146,21*7A
$GPGSV,3,3,11,29,09,173,,31,20,217,,32,27$GPRMC,045459.00,A,1046.17648,N,10639.55191,E,0.800,,,24,28,034,,25,3E,045459.00,A,A*6B
$GPRMC,045500.00,A,1046.17661,N,10639.55235,E,0.384,,221120,,,A*74
$GPVTG,,T,,M,0.3$GPRMC,045501.00,A,1046.17639,N,10639.55307,E,0.932,,221120,,,A*7F
$GPVTG,,T,,M,0.932,N,1.727,K,A*28
$GPGGA,$GPRMC,045502.00,A,1046.17690,N,10639.55366,E,0.665,,221120,,,A*75
$GPVTG,,T,,M,0.665,N,1.231,K,A*27
$GPGGA,045502.0$GPRMC,045503.00,A,1046.17714,N,10639.55474,E,1.182,,221120,,,A*72
$G5503.00,1046.17714,N,10639.55474,E,1,05,2.58,17.8,M,-$GPRMC,045504.00,A,1046.17708,N,10639.55532,E,1.076,5504.00,1046.17708,N,10639.55532,E,1,04,5.78,18.2,M,-2.6,M,,*73
$GP$GPRMC,045505.00,A,1046.17738,N,1065505.00,1046.17738,N,10639.55609,E,1,04,5.78,18.3,M,-2.6,M,,*7B
$GPGSA,A,3$GPRMC,045506.00,A,1046.17779,N,10639.55621,E,1.318
$GPGSV,3,1,11,10,31,342,08,12,25,102,29,15,08,057,24,18,65,194,$GPRMC,045507.00,A,1046.17792,N,10639.55655,E,1.359,,221120,,,A*7D
$G*09
$GPGSV,3,1,11,10,31,342,08,12,25,102,29,15,08,$GPRMC,045508.00,A,1046.17740,N,10639.55630,E,0.934,19,24,28,034,11,25,32,146,06*7B
$GPGSV,3,3,11,29,09,173,,31,21,218,$GPRMC,045509.00,A,1046.17764,N,106,24,28,034,09,25,32,146,06*7D
$GPGSV,3,3,11,29,09,173,,31,21,218,,32,27,29$GPRMC,045510.00,A,1046.17787,N,10639.55697,E,1.14,24,28,034,08,25,32,146,06*76
$GPGSV,3,3,11,29,09,173,,31,21,218,$GPRMC,045511.00,A,1046.17808,N,10639.55679,E,1.012,,221120,,,A*74
$G$GPRMC,045512.00,A,1046.17861,N,10639.55681,E,1.330,,221120,,,A*7C
$GPVTG,,T,,M,1.330,N,2.462,K,A*20
$G$GPRMC,045513.00,A,1046.17918,N,10639.55772,E,1.334,,221120,,,A*7B
$GPVTG,,T,,M,1.334,N,2.471,K,A*26
$GPRMC,045514.00,A,1046.17918,N,10639.55814,E,1.060,,221120,,,A*71
$GPVTG,5514.00,1046.17918,N,10639.55814,E,1,05,1.83,23.3,$GPRMC,045515.00,A,1046.17943,N,10639.55811,E,1.009,,221120,,,A*745515.00,1046.17943,N,10639.55811,E,1,05,1.83,23.5,M,-2.6,M,,*70
$GPGS$GPRMC,045516.00,A,1046.17873,N,10639.55681,E,0.748,,5516.00,1046.17873,N,10639.55681,E,1,06,1.62,24.0,M,$GPRMC,045517.00,A,1046.17906,N,10639.55826,E,0.529,,221120,,,A*75
75*0F
$GPGSV,3,1,11,10,31,342,20,1$GPRMC,045518.00,A,1046.17920,N,10639.55866,E,0.689,,221120,,,A*73
$GPVTG,75*0F
$GPGSV,3,1,11,10,31,342,20,12,25,102,28,15,$GPRMC,045519.00,A,1046.17898,N,10639.55858,E,0.460,,221120,,,A*7875*0F
$GPGSV,3,1,11,10,31,342,20,12,25,102,29,15,08,057,24,18,65,194,$GPRMC,045520.00,A,1046.17925,N,10639.55880,E,0.586,,227,20,24,28,034,10,25,32,146,*79
$GPGSV,3,3,11,29,09$GPRMC,045521.00,A,1046.17999,N,10639.55897,E,1.200,,221120,,,A*71
7,19,24,28,034,10,25,32,146,*7C
$G$GPRMC,045522.00,V,,,,,,,221120,,,N*7B
$GPVTG,,,,,,,,,N*30
$GPGGA,045522.$GPRMC,045523.00,A,1046.18030,N,10639.55925,E,1.033,,221120,,,A*7C
$GPVTG,,T,,M,1.033,N,1.912,K,A*29
$GPGGA,045523$GPRMC,045524.00,A,1046.18040,N,10639.55943,E,0.981,,221120,,,A*7D
$GPVTG,,T,,M,0.981,N,1.816,K,A*2D
$GPGGA,045524.00,1046.$GPRMC,045525.00,A,1046.18057,N,10639.55957,E,0.882,,221120,,,A*7D
$GPVTG,,T,,M,0.882,N,1.633,K,A*26
$GPGGA,045525.00,1046.1$GPRMC,045526.00,A,1046.18075,N,10639.5595526.00,1046.18075,N,10639.55950,E,1,06,1.62,26.4,M,-2.6,M,,*7F
$GPGSA,A,$GPRMC,045527.00,A,1046.18053,N,10639.55950,E,0.505527.00,1046.18053,N,10639.55950,E,1,06,1.62,26.3,M,-2.6,M,,*7D
$$GPRMC,045528.00,A,1046.18056,N,10639.55929,E,0.445,,221120,,,A*7F
$G75*0F
$GPGSV,3,1,11,10,31,342,23,12,25,102,30,15,08,05$GPRMC,045529.00,A,1046.18055,N,10639.55922,E,0.356,75*0F
$GPGSV,3,1,11,10,31,342,24,12,25,102,30,15,08,057,23,18,65,194,*76$GPRMC,045530.00,A,1046.18057,N,10639.5575*0F
$GPGSV,3,1,11,10,31,342,24,12,25,102,30,15,08,057,24,18,65,194,*71$GPRMC,045531.00,A,1046.18025,N,10639.55916,E,0.2722,24,28,034,16,25,32,146,*78
$GPGSV,3,3,11,29,09,173,,31,21,218,$GPRMC,045532.00,A,1046.17965,N,10639.55888,E,0.351,,221120,,,A*7A
$G21,24,28,034,15,25,32,146,*78
$GPGSV,3,3,11,29,09,173,$GPRMC,045533.00,A,1046.17938,N,10639.55873,E,0.325,873,E,045533.00,A,A*6B
$GPRMC,045534.00,A,1046.17956,N,10639.55905,E,0.104,,221120,,,A*7A
$GPVTG,,T,,M,0.104,N,$GPRMC,045535.00,A,1046.17945,N,10639.55924,E,0.074,,221120,,,A*7C
$GPVTG,,T,,M,0.074,N,0.136,K,A*24
$GPGGA,045535.00,1046$GPRMC,045536.00,A,1046.17902,N,10639.55931,E,0.462,,221120,,,A*7B
$GPVTG,,T,,M,0.462,N,0.856,K,A*28
$GPGGA,045536.00,1046.17902,N,106$GPRMC,045537.00,A,1046.17871,N,*70
$GPVT5538.00,1046.17844,N,10639.55975,E,1,06,$GPRMC,045539.00,A,1046.17817,N,10639.55991,E,0.503,,221120,,,A*7D
$GPVTG75*0F
$GPGSV,3,1,11,10,31,342,22,12,25,102,28,15,$GPRMC,045540.00,A,1046.17811,N,10639.56026,E,0.438,,221120,,,A*7A
75*0E
$GPGSV,3,1,11,10,31,342,22,12,25,102,29,15,08,057,24,18,65,194,$GPRMC,045541.00,A,1046.17798,N,10639.56052,E,0.455,,2275*0E
$GPGSV,3,1,11,10,31,342,22,12,25,102,29,15,08$GPRMC,045542.00,A,1046.17810,N,10639.56079,E,0.471,,221120,,,A*7E
$GPVT7,20,24,28,034,15,25,32,146,*79
$GPGSV,$GPRMC,045543.00,A,1046.17799,N,10639.56088,E,0.280,,221120,,,A*77
$GPVTG8,20,24,28,034,15,25,32,146,*76
$GPGSV,3,3,11,29,$GPRMC,045544.00,A,1046.17822,N,10639.56108,E,0.361,,221120,,,A*78
56108,E,045544.00,A,A*67
$GPRMC,045545.00,A,1046.17873,N,10639.56136,E,0.924,,221120,,,A*7B
$GPVTG,,T,,M,0.924,N,1.711,K,$GPRMC,045546.00,A,1046.17855,N,10639.56150,E,0.521,,221120,,,A*75
$GPVTG,,T,,M,0.521,N,0.964,K,A*2E
$GPGGA,045546.00,1046.$GPRMC,045547.00,A,1046.17852,N,10639.56165,E,0.396,,221120,,,A*7F
$GPVTG,,T,,M,0.396,N,0.733,K,A*28
$GPGGA,0455$GPRMC,045548.00,A,1046.17855548.00,1046.17855,N,10639.56174,E,1,07,1.22,34.0,M,-2.6,M,,*7D
$GPGSA,A,3,24,15,18,20,23,32,12,,,,,,2.03,1.22,1.62*0D
$GPGSV,3,1,11,10,31,342,23,12,25,102,29,15$GP5549.00,1046.17841,N,10639.56211,E,1,07,1.22,34.4,M,-2.6,M,,*7D
$GPGSA,A,3,24,15,18,20,23,32,12,,,,,,2.03,1.22,1.62*0$GPRMC,045550.00,A,1046.17887,N,10639.56263,E,1.106,,221120,,,A*7E
$GPVTG,,T,,M,1.106,N,2.048,K,A*2B
$GPGGA,045550.00,1046.17887,N,101.62*0D
$GPGSV,3,1,11,10,31,342,21,12,25,102,28,15,08,057,21,18,65,194,12*7B
$GPGSV,3,2,11,20,57,020,18,2$GP1.62*0D
$GPGSV,3,1,11,10,31,342,21,12,25,102,28,15,08,057,21,18,65,194,12*7B
$GPGSV,3,2,11,20,57,0$GPRMC,045552.00,A,1046.17885,N,10639.563501.62*0D
$GPGSV,3,1,11,10,31,342,22,12,25,102,29,15,08$GPRMC,045553.00,A,10018,22,24,28,034,12,25,32,145,*70
$GPGSV,3,3,11,29,09,$GPRMC,045554.00,A,1046.17829,N,10639.56418,E,1.206,,221120,,,018,22,24,28,034,14,25,32,145,*7C
$GPGSV,3,3,11,29,09,173,,3$GPRMC,045555.00,A,1046.17826,N2,N,10639.56485,E,0.809,,221120,,,A*74
$GPVTG,,T,,M,0.809,N,1.498$GPRMC,045559.00,AA,1046.17737,N,10639.56463,E,0.455,,221120,62*04
$GPGSV,3,1,11,$GPRMC,045602.00,A,1046.17690,N,10639.56411.62*0D
$GPGSV,3,1,11,10,31,342,22,12,25,102,29,15,08,05$GPRMC,045603.00,A,101.62*0D
$GPGSV,3,1,11,10,31,342,22,12,25,$GPRMC,045604.00,A,1046.17652,N,10639.56358,E,0018,22,24,28,034,07,25,32,145,*7E
$GPGSV,3,3,$GPRMC,045605.00,A,1046.17626,N,10639.56326,E,0.059,,221120,,,A*72
$GPV018,22,24,28,034,07,2$GPRMC,045606.00,A,1046.17590,N,10639.56288,E9.56288,E,045606.00,A,A*6D
$GPRMC,045607.00,A,1046.17595,N,10639.56282,E,0.279,,221120,,,A*74
$GPVTG,,T,,$GPRMC,045608.00,A,1046.17589,N,10639.56281,E,0.156,,221120,,,A*7B
$GPVTG,,T,,M,0.156,N,0.289,K,A*22
$GPGGA,045608.00,1046.17589,N,10639.56281,E,1,07,1.26,35.9,M,-2.6,M,,*73
$GP$GPRMC,045609.00,A,1046.17612,N,10639.56285,E,0.186,,221120,,,A*72
$GPVTG,,T,,M,0.186,N,0.344,K,A*2F
$GPGGA,045609.00,1046.17612,N,10639.56285,E$GPRM5610.00,1046.17651,N,10639.56298,E,1,07,1.22,36.8,M,-2.6,M,,*72
$GPGSA,A,3,24,15,18,20,23,32,12,,,,,,2.03,1.22,1.62*0D
$GPG$GPRMC,045611.00,A,1046.17675,N,10639.56301,E,0.890,,221120,,,A*79
$GPVTG,,T,,M,0.890,N,1.647,K,A*26
5611.00,1046.17675,N,10639.56301,E,1,07,1.22,37.3,M$GPRMC,045612.00,A,1046.17684,N,10639.56311,E,0.867,,221120,,,A*7D
$GPVTG,,T,,M,0.867,N,1.606,K,A*2B
$GPGGA,045612.001.62*0D
$GPGSV,3,1,11,10,31,342,20$GPRMC,045613.00,A,1046.17681,N,10639.56324,E,0.662,,221120,,,A*74
$GPVTG,,T,,M,0.662,N,1.225,K,A*25
1.62*0D
$GPGSV,3,1,11,10,31,342,20$GPRMC,045614.00,A,1046.17669,N,10639.56324,E,0.363,,221120,,,A*71
$G1.62*0D
$GPGSV,3,1,11,10,31,342,20$GPRMC,045615.00,A,1046.17666,N,10639.56335,E,0.323,,221120,,,A*7B
018,22,24,28,034,07,25,32,145,*7F
$GPGSV,3,3,11,29,09,173,,31,21,218,,32,27,297,15*48
$GPGLL,1046.17666,N,10639.56335,E,045$GPRMC,045616.00,A,1046.17661,N,10639.56355,E,0.470,,221120,,,A*78,21,24,28,034,07,25,32,145,*7D
$GPGSV,3,3,1$GPRMC,045617.00,A,1046.17644,N,10639.56371,E,0.510,,221120,,,A*7F
$GPVTG,,T,,M,0.510,N,0.945,K,A*2F
$G371,E,045617.00,A,A*6$GPRMC,045618.00,A,1046.17605,N,10639.56378,E,0.705,,221120,,,A*7A
$GPVTG,,T,,M,0.705,N,1.306,K,A*25
$GPGGA,$GPRMC,045619.00,A,1046.17554,N,10639.56382,E,1.059,,221120,,,A*76
$GPVTG,,T,,M,1.059,N,1.962,K,A*22
$GPGGA,045619.00,1046.$GPRMC,045620.00,A,1046.17534,N,10639.56383,E,0.974,,221120,,,A*7C
$GPVTG,,T,,M,0.974,N,1.804,K,A*24
$GPGGA,045620.00,1046.17534,N,10639.56383,E,1,05,2.57,38$GPRMC,045621.00,A,1046.17516,N,10639.56377,E,0.841,,221120,,,A*71
5621.00,1046.17516,N,10639.56377,E,1,05,2.57,38.0,M,-2.6,M,,*75
$GPGSA,A,3,15,18,20$GPRMC,045622.00,A,1046.17474,N,1065622.00,1046.17474,N,10639.56372,E,1,05,2.57,37.7,M,-2.6,M,,*7E
$GPGSA,A,3$GPRMC,045623.00,A,1046.17502,N,106*08
$GPGSV,3,1,11,10,32,342,14,12,25,101,26,15,08,057,19,18,64,194,08*72
$GPGSV,3$GPRMC,045624.00,A,1046.17489,N,10639.56368,E,0.494,,221120,,,A*79
$GPVTG,,T,,M,0.494,N,0.915,K,A*27
$GPGGA,045624.00,1046.17489,N,10639.56368,E,1,05,2.57,37.0,M,-2.6,M,,*08
$GPGSV,3,1,11,10,32,342,15,12,25,101,26,15,08,057,20,18,64,194,08*79
$GPGSV,3,2,11,20,57,020,18,2$GPRMC,045625.00,A,1046.17464,N,10639.56376,E,0.512,,221120,,,A0
$GPGSV,3,1,11,10,32,342,15,12,25,101,26,15,08,057,20,18,64,194,*71
$GPGSV,3,2,11,20,57,020,18,23,51,018,19,24,28,034,06,25,32,1$GPRMC,4,28,034,08,25,32,145,*72
$GPGSV,3,3,11,29,09,173,,31,21,218,,32,27,297,13*4E
$GPGLL,1046.17518,N,10639.56392,E,045626.00,A,A*65$GPRMC,045627.00,A,1046.17522,N,10639.56388,E,0.260,,221120,,,A*79
$GPVTG,,T,,M,0.260,N,0.482,K,A*294,28,034,08,25,32,145,*79
$GPGSV,3,3,11,29,09,173,,31,21,218,,32,27,297,13*4E
$GPGLL,1046.17522,N,10639.56388,E,045627.00,A$GPRMC,045628.00,A,1046.17524,N,10639.56390,E,0.096,,221120,,,A*72
$GPVTG,,T,,M,0.096,N,0.179,K,A*23
$GPRMC,045629.00,A,1046.17609,N,10639.56487,E,0.650,,221120,,,A*72
$GPVTG,,T,,M,0.650,N,1.205,K,A*26
$G$GPRMC,045630.00,A,1046.17695,N,10639.56562,E,1.209,,221120,,,A*7C
$GPVTG,,T,,M,1.209,N,2.239,K,A*23
$G$GPRMC,045631.00,A,1046.17692,N,10639.56576,E,0.911,,221120,,,A*7C
$GPVTG,,T,,M,0.911,N,1.687,K,A*22
$GPGGA,045631.00,1046.17692,N,10639.56576,E,1,05,1.88,37.8,M,-2.6,M,,*7A
$GPGSA,A,3,15,20,23,32,12,,,,,,,,2.58,1.88,1.76*09
$GPGSV,3,1,11,10,32,342,14,$GPRMC,045632.00,A,1046.17708,N,10639.56545,E,0.861,,221120,,,A*7B
$GPVTG,,T,,M,0.861,N,1.595,K,A*24
$GPGGA,045632.00,1046.17708,N,10639.56545,E,1,05,1.88,37.8,M,-2.6,M,,*7B
$GPGSA,A$GPRMC,045633.00,A,1046.17726,N,10639.56569,E,0.833,,221120,,,A*7F
$GPVTG,,T,,M,0.833,N,1.544,K5633.00,1046.1$GPRMC,045634.00,A,1046.17690,N,10639.56528,E,0.354,,221120,,,A*7B
$GPVTG,,T,,M,0.354,N,0.656,K,A*24
$GPGGA,0456344
$GPGSV,3,1,11,10,32,342,13,12,25,101,28,15,08,057,20,18,64,194,*79
$GPGSV,3,2,11,20,57,020,18,23,51,018,21,24,28,034,06,25,32,145,*77
$GPGSV,3,3,1$GPRMC,045635.00,A,1046.17717,N,10639.56551,E,0.532,,221120,,,A*7C
$GPVTG,,T,,M,0.532,7
$GPGSV,3,1,11,10,32,342,12,12,$GPRMC,045636.00,A,1046.17723,N,10639.56567
$GPGSV,3,1,11,10,3$GPRMC,045637.00,A,1046.17723,N,10639.56577,E,0.360,,221120,,,A*7C
$GPVTG,,T,,M,04,28,034,06,25,32,145,*79
$GPGSV,3$GPRMC,045638.00,A,1046.17755,N,10639.56618,E,0.524,,221120,,,A*7E
$GPVTG,,T,,M,,24,28,034,08,25,32,145,*79
$GPGSV$GPRMC,045639.00,A,1046.17844,N,10639.56697,E,1.071,,221120,,,A*73
$GPVTG,,T,,M,1.071,N,17,E,045639.00,A,A*6F
$GPRMC,045640.00,A,1046.17900,N,10639.56758,E,1.283,,221120,,,A*71
$GPVTG,,T,,M,1.283,N,2.376,K,A*2B
$GPGGA,045640.00,1046.17900,N,10639.567$GPRMC,045641.00,A,1046.17887,N,10639.56759,E,0.941,,221120,,,A*7B
$GPVTG,,T,,M,0.941,N,1.742,K,A*2F
$GPGGA,045641.00,1046.17887,N,10639.56759,E,1,05,1.88,40.2,M,-2.6,M,,*72
$GPGSA,A,3,15,20$GPRMC,045642.00,A,1046.17919,N,10639.56824,E,1.118,,221120,,,A*7E
$GPVTG,,T,,M,1.118,N,2.071,K,A*2E
$GPGGA,045642$GPRMC,045643.00,A,1046.17934,N,10639.56836,E,1.081,,221120,,,A*72
$GPVTG,,T,,M,1.081,N,2.002,K,A*2B
$GPGGA,045643.00,1046.17934,N,10639.56836,E,1,05,1.88,39.9,M,-2.6,M,,*7A
$GPGSA,A,3,15,20,23,32,12,,,,,,,,2.58,1.88,1.76*09
$GPGSV,3,1,11,10,32,342,,12,25,1$GPRMC,045644.00,A,1046.17942,N,10639.56839,E,0.976,,221120,,,A*7B
$GPVTG,,T,,M,0.976,N,1.807,K,A*25
5644.00,1046.17942,N,10639.56839,$GPRMC,045645.00,A,1046.17961,N,10639.56828,E,1.038,,221120,,,A*79
$GPVTG,,T,,M,1.038,N,1.922,K,A*2*09
$GPGSV,3,1,11,10,32,342,,12,25,101,26,15,08,057,19,18,64,194,*7$GPRMC,045646.00,A,1046.17981,N,10639.56838,E,1.032,,221120,,,A*7F
$GPVTG,,T,,M,1.032,N,76*0E
$GPGSV,3,1,11,10,32,342,,12,$GPRMC,045647.00,A,1046.18007,N,10639.56848,E,1.164,,221120,,,A*73
$GPVTG,,T,,M,1.164,N,76*0E
$GPGSV,3,1,11,10,32,342,,12,$GPRMC,045648.00,A,1046.18016,N,10639.56832,E,0.998,,221120,,,A*7B
$GPVTG,,T,,M,0.998,N,1.847,K,A*21
$GPGGA,045648.00,1046.18016,N,10639.56832,E,1,06,1.89,39.5,M,-2.6,M,,*7D
$GPGSA,A,3,24,15,20,23,32,12,,,,24,28,034,08,25,32,145,*7C
$GPGSV,3,3,11,29,09,173,,31,21,218,,32,27,297,10*4D
$GPGLL,1046.18016,N,10639.56832$GPRMC,0456494,28,034,08,25,32,145,*7C
$GPGSV,3,3,11,29,09,173,,31,21,218,,32,27,297,*4C
$GPGLL,1046.18042,N,10639.56852,E$GPRMC,5650.00,A,A*67
$GPRMC,045651.00,A,1046.18145,N,10639.56911,E,1.438,,221120,,,A*72
$GPVTG,,T,,M,1.438,N,2.664,K,A*2B
$GPGGA,045651.00,1046.18145,N,10639.56911,E,1,04,5.99,40.2,M,-2.6,M,,*7C
$GPGSA,A,3,15,20,23,12,,,,,,,,,7.69,5.99,4.82$GPRMC,045652.00,A,1046.18165,N,10639.56908,E,1.316,,221120,,,A*70
$GPVTG,,T,,M,1.316,N,2.437,K,A*24
$GPGGA,045$GPRMC,045653.00,A,1046.18178,N,10639.56914,E,1.074,,221120,,,A*77
$GPVTG,,T,,M,1.074,N,1.990,K,A*20
$GPGGA,045653.00,1046$GPRMC,045654.00,A,1046.185654.00,1046.18209,N,10639.56957,E,1,04,6.00,40.8,M,-2.6,M,,*79
$GP$GPRMC,045655.00,A,1046.18177,N,10639.56940,E,0.706,,221120,,,A*7C
$GPVTG,,T,,M,0.706,N,1.307,K,5655.00,1046.18177,N,10639.56940,E,$GPRMC,045656.00,A,1046.18188,N,10639.56948,E,0.712,,221120,,,A*72
$GPVTG,,T,,M,0.712,N,1E
$GPGSV,3,1,11,10,32,342,,12,25,1$GPRMC,045657.00,A,1046.18154,N,10639.56945,E,0.325,,221120,,,A*7F
$GPVTG,,T,,M,0.325,N,0.602,K,A*23
$F
$GPGSV,3,1,11,10,32,342,,12,25,101,27,15,08,057,17,18$GPRMC,045658.00,A,1046.18186,N,10639.56936,E,0.662,,221120,,,A*7D
$GPVTG,,T,,M,0.662,N,1.226,K,A*26
$GPGGA,F
$GPGSV,3,1,11,10,32,342,,12,25,101,27,15,08,057,17,18,64,194,*70
$GPGSV,3,2,11,20,57,020,15,23,51,018,20,24,28,034,,2$GPRMC,045659.00,A,1046.18184,N,10628,034,,25,32,145,*77
$GPGSV,3,3,11,29,0$GPRMC,045700.00,A,1046.18181,N,10639.56987,E,0.397,,221120,,,A*73
$G28,034,,25,32,145,*7C
$GPGSV,3,3,11,29,$GPRMC,045701.00,A,1046.18146,N,10639.56986,E,0.130,,221120,,,A*77
$G01.00,A,A*6E
$GPRMC,045702.00,A,1046.18187,N,10639.57018,E,0.430,,221120,,,A*73
$GPVTG,,T,,M,0.430,N,0.796,K,A*2C
$GPGGA,045702.00,1046.18187,N,10639.57018,E,1,04,6.02,42.$GPRMC,045703.00,A,1046.18124,N,10639.56961,E,0.257,,221120,,,A*7A
$GPVTG,,T,,M,0.257,N,0.476,K,A*26
$GPGGA,045703.00,1046.18124,N,10639.56961,E,1,04,6.02,42.3,M,-2.6,M,,*78
$GPGSA,A,3,15,20,23,12,,,,,,,,,7.72,6.02,4.83*0F
$GPGSV,3,1,11,10,32,342,,12,25,101,28,15,08,057,19,18,64,194,07*76
$GPGSV,3,2,11,20,57,020,16,23,51,018,21,24,28,034,,25,32,145,*7F$GPRMC,045704.00,A,1046.18113,N,10639.56966,E,0.372,,221120,,,A*78
$GPVTG,,T,,M,0.372,N,0.689,K,A*22
$GPGGA,045704.00,1046.18113,N,10639.56966,E,1,04,6.02,42.4,M,-2.6,M,,*7B
$GPGSA,A,3,15,20,23,12,,,,,,,,,7.72,6.02,4.83*0F
$GPGSV,3,1,11,10,32,342,,12,25,101,28,15,08,057,19,18,64,194,12*72
$GPGSV,3,2,11,20,57,020$GPRMC,045705.00,A,1046.18055,N,10639.56921,E,0.550,,221120,,,A*7F
$GPVTG,,T,5705.00,1046.18055,N,10639.56921,E,1,04,6.02,42.4,M,-2.6,M,,*7A
$GPGSA,A,3,15,20,23,12,,,,,,,,,7.72,6.02,4.83*0F
$GPRMC,045706.00,A,1046.18017,N,10639.56921,E,0.912,,221120,,,A*70
$GPVTG,,T,,5706.00,1046.18017,N,10639.56921,E,1,04,6.03,42.6,M,-2.6,M,,*7C
$GPGSA,A,3,15,20,23,12,,,,,,,,,7.$GPRMC,045707.00,A,1046.18068,N,10639.56956,E,0.589,,221120,,,A*77
*0A
$GPGSV,3,1,11,10,32,342,,12,25,101,28,15,08,057,19,18,64,194,13*73
$GPGSV$GPRMC,045708.00,A,1046.18115,N,106*0A
$GPGSV,3,1,11,10,32,342,,12,25,101,28,15,08,057,19,18,64,194,12*72
$$GPRMC,045709.00,A,1046.18151,N,10639.56969,E,0.223,,221120,,,A*79
$GP4,28,034,08,25,32,145,*77
$GPGSV,3$GPRMC,045710.00,A,1046.18141,N,10639.57011,E,0.552,,221120,,,A*76
$GPVTG,,T,,M,0.552,N,1.022,K,A*20
$GPGGA,0454,28,034,08,25,32,145,*79
$GPGSV,3,3,11,29,09,173,,31,2$GPRMC,045711.00,A,1046.18170,N,10639.57002,E,0.197,,221120,,,A*7A
$GPV045711.00,A,A*6E
$GPRMC,045712.00,A,1046.18199,N,10639.57041,E,0.247,,221120,,,A*77
$GPVTG,,T,,M,0.247,N,0.457,K,A*24
$GPGGA,045712.00,1046.18199,N,106$GPRMC,045713.00,A,1046.18172,N,10639.57032,E,0.546,,221120,$GPRMC,045714.00,A,1046.18266,N,10639.57048,E,0.160,,221120,,,A*7D
$GPVTG,,T,,M,0.160,N,0.296,K,A*29
$GPGGA,045714.00,1046.1826$GPRMC,045715.00,1046.18304,N,10639.57065,E,1,05,5.93,43.3,M,-2.6,M,,*78
$GPGSA,A,3,24,15,20,23,12,,,,$GPRMC,04575716.00,1046.18376,N,10639.57125,E,1,06,2.44,43.3,M,-2.6,M,,*75
$GPGSA,A,3,24,15,18,20,23,12,$GPRMC,045717.00,A,1046.18486,N,10699*04
$GPGSV,3,1,11,10,32,342,,12,25,101,28,15,08,05$GPRMC,045718.00,A,1046.18510,N,10639.57121,E,0.270,,221120,,,A*7B
$GPVTG,,T,,M,0.270,N,0.500,K,A*23
$GPGGA,045718.00,1046.18510,N,1099*04
$GPGSV,3,1,11,10,32,342,,12,25,101,28,15,08,057,23,18,64,194,12*7B
$GPGS$GPRMC,045719.00,A,1046.18564,N,10699*04
$GPGSV,3,1,11,10,32,342,,12,25,101,28,15,08,057,23,18,64,194,12*7B
$GPGSV,3,2,11,20$GPRMC,045720.00,A,1046.18630,N,10619,24,27,034,11,25,32,145,*7B
$GPGSV,3,3,11,29,09,172,,31,21,218,,32,27,29$GPRMC,045721.00,A,1046.18693,N,10620,24,27,034,11,25,32,145,*71
$GPGSV,3,3,11,29,09,172,,31,21,218,,32,27,297,*4D
$GPGLL,1$GPRMC,045722.00,A,1046.18711,N,1068,E,045722.00,A,A*61
$GPRMC,045723.00,A,1046.18747,N,10639.57197,E,0.239,,221120,,,A*73
$GPVTG,,T,,M,0.239,N,0.442,K,A*29
$GPGGA,045723.00,1046.18747,N,10639.57197,E,1,06,2.44,41.4,M,-2.$GPRMC,045724.00,A,1046.18784,N,10639.57183,E,0.133,,221120,,,A*77
$GPVTG,,T,,M,0.133,N,0.247,K,A*23
$GPGGA,045724.00,1046.18784,N,10639.57183,E,1,06,2.44,41.0,M,-2.6,$GPRMC,045725.00,A,1046.18746,N,10639.57170,E,0.388,,221120,,,A*76
$GPVTG,,T,,M,0.388,N,0.719,K,A*2F
$GPGGA,045725.00,1046.18746,N,10639.57170,E$GPRMC,045726.00,A,1046.18751,N,1065726.00,1046.18751,N,10639.57167,E,1,04,6.07,41.3,M,-2.6,M,,*72
$GPGSA,A,$GPRMC,045727.00,A,1046.18755,N,10639.57175,E,0.244,,221120,,,A*72
$G5727.00,1046.18755,N,10639.57175,E,1,04,6.07,41.3,M,-2.6,M,,*74
$GPGSA,A,3,15,20,23,12,,,,,,,$GPRMC,045728.00,A,1046.18753,N,10639.57192,E,0.251,,221120,,,A*76
9
$GPGSV,3,1,11,10,32,342,,12,25,101,28,15,08,057,22,18,64,194,*79
$GPGSV,3,2,11,20,58,021,1$GPRMC,045729.00,A,1046.18735,N,10639.57190,E,0.142,,9
$GPGSV,3,1,11,10,32,342,,12,25,101,28,15,08,057,22,18,64,194,05*7C
$GPGSV,3,2,11,20,58,021,18,23,51,019,19,24,27,03$GPRMC,045730.00,A,1046.18713,N,10639.57166,E,0.053,,221120,6
$GPGSV,3,1,11,10,32,342,,12,25,101,28,15,08,057,21$GPRMC,045731.00,A,1046.18695,N,10639.57190,E,0.298,,221120,,,A*72
$GPVTG,,T,,M,0.298,N,0.552,K,A*22
$GPGGA,0454,27,034,12,25,32,145,*78
$GPGSV,3$GPRMC,045732.00,A,1046.18665,N,10639.57216,E,0.516,,221120,,,A*72
4,27,034,12,25,32,145,*78
$GPGSV,3$GPRMC,045733.00,A,1046.18638,N,10639.57202,E,0.515,,221120,,,A*7D
$G045733.00,A,A*67
$GPRMC,045734.00,A,1046.18603,N,10639.57168,E,0.337,,221120,,,A*7B
$GPVTG,,T,,M,0.337,$GPRMC,045735.00,A,1046.18630,N,10639.57192,E,0.260,,221120,,,A*7C
$GPVTG,,T,,M,0.260,N,0.482,K,A*29
$GPGGA$GPRMC,045736.00,A,1046.18653,N,10639.57209,E,0.647,,221120,,,A*7A
$GPVTG,,T,,M,0.647,N,1.198,K,A*27
$GPGGA,045736.00,1046.18653,N,10639.57209,E,$GPRMC,045737.00,A,1046.18612,N,1065737.00,1046.18612,N,10639.57234,E,1,05,5.98,43.5,M,-2.6,M,,*71
$GPGSA,A,$GPRMC,045738.00,A,1046.18624,N,10639.57277,E,0.330,,221120,,,A*78
$GPVTG,,5738.00,1046.18624,N,10639.57277,E,1,05,5.98,43.6,M,-2.6,M,,*7F
$GPGSA,A,3,24,15,20,23,12,,,,,,,,7.70,5.98,4.$GPRMC,045739.00,A,1046.18523,N,106*0D
$GPGSV,3,1,$GPRMC,045740.00,A,1046.18355,N,10639.56859,E,0.666,,221120,,,A*75
71*0E
$GPGSV,3,1,11,10,32,342,,12,25,101,28,15,08,057,23,18,64,194,$GPRMC,045741.00,A,1046.18338,N,10639.56871,E,0.593,,221120,,,A*7C
$GPVTG,,T,,M*0E
$GPGSV,3,1,11,10,$GPRMC,045742.00,A,1046.18237,N,10639.56614,E,0.604,,221120,,,A*71
$GPVTG,20,24,27,034,14,25,32,145,*75
$GPGSV,3,3,11,29,09,172,12,31,21,218,,32,27,297,12*4D
$GPRMC,045743.00,A,1046.18199,N,10639.56520,24,27,034,13,25,32,145,*72
$GPGSV,3,3,11,29,09,172,12,31,21,218,,32,27,2$GPRMC,045744.00,A,1046.18252,N,10639.5651516,E,045744.00,A,A*6C
$GPRMC,045745.00,A,1046.18284,N,10639.56414,E,1.407,,221120,,,A*7C
$GPVTG,,T,,M,1.407,N,2.605$GPRMC,045746.00,A,1046.18250,N,10639.56280,E,1.534,,221120,,,A*7C
$GPVTG,,T,,M,1.534,N,2.841,K,A*2F
$GPRMC,045747.00,A,1046.18120,N,10639.56072,E,1.223,,221120,,,A*77
$GPVTG,,T,,M,1.223,N,2.266,K,A*21
$GPGGA,045747.00,1046.18120,N,10639.560$GPRMC,045748.00,A,1046.18015,N,10639.55993,E,0.854,,221120,,,A*71
$GPVTG5748.00,1046.18015,N,10639.55993,E,1,06,2.43,32.0,M,-2.6,M,,*7D
$GPGSA,A,3,24,15,18$GPRMC,045749.00,A,1046.17955,N,1065749.00,1046.17955,N,10639.55912,E,1,06,2.43,31.3,M,-2.6,M,,*77
$GPGSA,A,3,24,15$GPRMC,045750.00,A,1046.17911,N,10696*09
$GPGSV,3,1,11,10,32,343,,12,25,101,27,15,08,058,22,18,64,194,10*79$GPRMC,045751.00,A,1046.17828,N,10639.55779,E,0.998,96*09
$GPGSV,3,1,11,10,32,343,,12,25,101,27,15,08,058,22,18,64,194,10*79
$GPGSV,3,2,11,20,58,021,1$GPRMC,045752.00,A,1046.17759,N,10696*09
$GPGSV,3,1,11,10,32,343,,12,25,101,27,15,08,058,23,18,64,194,10*78
$GPGSV,3,2,11,20,58,021,17$GPRMC,045753.00,A,1046.17735,N,1063918,24,27,034,12,25,32,145,*77
$GPGSV,3,3,11,29,09,172,08,31,21,218,,32,27,297,*45
$GPGLL,1046.17735,N,10639.55612,E,045753.00,A,A$GPRMC,045754.00,A,1046.176919,24,27,034,12,25,32,145,*76
$GPGSV,3,3,11,29,09,172,08,31,21,218,05,32,27,297,*40
$GPGLL,104$GPRMC,045755.00,A,1046.176619,24,27,034,12,25,32,145,*76
$GPGSV,3,3,11,29,09,172,08,31,21,218,08,32,27,297,*4D
$GPGLL,104$GPRMC,045756.00,A,1046.17646,N,106$GPRMC,045757.00,A,1046.17599,N,10639.55441,E,0.782,,221120,,,A*77
$GPVTG,,T,,M,0.782,N,1.448,K,A*27
$GPGGA,045757.00,1046.17599,N,1$GPRMC,045758.00,A,1046.17563,N,10639.55404,E,0.891,,221120,,,A*71
$GPVTG,,T,,M,0.891,N,1.650,K,A*21
$GPGGA,045758.00,1046$GPRMC,045759.00,A,1046.17565,N,10639.55382,E,0.6605759.00,1046.17565,N,10639.55382,E,1,05,2.56,25.7,M,-2.6$GPRMC,045800.00,A,1046.17533,N,10639.55334,E,0.849,,221120,,,A*77
5800.00,1046.17533,N,10639.55334,E,$GPRMC,045801.00,A,1046.17526,N,10639.55267,E,0.900,,221120,,,A*79
$GPVTG5801.00,1046.17526,N,10639.55267,E,1,05,2.56,24.6,M,-2.6,M,,*73
$GPGSA,A,3,15,18,20,23,12,,,,,,,,4.04,2.56,3.12*$GPRMC,045802.00,A,1046.17495,N,106*0E
$GPGSV,3,1,11,10,32,343,,12,25,101,27,15,08,058,22,18,64,193,11*7F
$GPGS$GPRMC,045803.00,A,1046.17512,N,106*0E
$GPGSV,3,1,11,10,32,343,,12,25,101,27,15,08,058,22,18,64,193,11*7F
$GPGSV,3,2,11,20,58,021,15,23,51,019,17$GPRMC,045804.00,A,1046.17479,N,10639.55130,E,0.773,,221120,,,A*7C
$GP27,034,06,25,33,144,*7C
$GPGSV,3,3,11,29,08,172,,31,21,218,09,32,27,297,*45
$GPGLL,1046.17479,N,10639.55130,E,045804.00,A,A*64
$GPRMC,045805.00,A,1046.17427,034,06,25,33,144,*73
$GPGSV,3,3,11,29,08,172,,31,21,218,09,32,27,297,*45
$GPGLL,1046.17414,N,10$GPRMC,045806.00,A,1046.17385,N,106$GPRMC,045807.00,A,1046.17384,N,10639.55153,E,1.014,,221120,,,A*78
$GPVTG,,T,,M,1.014,N,1.878,K,A*21
$GPGGA,045807.00,1046.$GPRMC,045808.00,A,1046.17437,N,10639.55180,E$GPRMC,045809.00,A,1046.17475,N,10639.55187,E,0.338,,221120,,,A*7A
$GPVTG,,T,,M,0.338,N,0.627,K,A*28
$GPGGA,045809.00,1046.17475,N,10639.55187,E,1,05,6.05,21.5,M,-2.6,M,,*75$GPRMC,045810.00,A,1046.17459,N,10639.55226,E,0.770,,221120,,,A*7C
$GPVTG,,T,,M,0.7705810.00,1046.17459,N,1063$GPRMC,045811.00,A,1046.17508,N,10639.55322,E,0.637,,221120,,,A*7F
$GPVTG,,T,,M,0.635811.00,1046.175$GPRMC,045812.00,A,1046.17594,N,10639.55470,E,0.202,,221120,,,A*7B
*09
$GPGSV,3,1,11,10,32,343,,12,25$GPRMC,045813.00,A,1046.17661,N,10639.55530,E,0.361,,221120,,,A*72
$GPVTG,,T,,M,0.361,N,0.668,K,A*2F
$GPGGA,045813.00,1046.*09
$GPGSV,3,1,11,10,32,343,,12,25$GPRMC,045814.00,A,1046.17690,N,10639.55632,E,0.045,,221120,,,A*7F
$GPVTG,24,27,034,07,25,33,144,*70
$GPGSV,3,3,11,29,08,1$GPRMC,045815.00,A,1046.17712,N,10639.55685,E,0.174,,221120,,,A*7A
,24,27,034,07,25,33,144,*77
$GPGSV,3,3,11,29,08,172,,31,22,218,15,32,27,298,*44
$GPGLL,1046.17712,N,10639.55685,E,045815.00,A,A*63$GPRMC,045816.00,A,1046.17779,N,106,24,27,034,07,25,33,144,*7E
$GPGSV,3,3,11,29,08,172,,31,22,218,15,32,27,2$GPRMC,045817.00,A,1046.17828,N,10639.55839,E,0.51$GPRMC,045818.00,A,1046.17834,N,10639.55883,E,0.256,,221120,,,A*77
$GPVTG,,T,,M,0.256,N,0.474,K,A*25
$GPGGA,045818.00,1046.17834,N,10639.55883,E,1,05,2.56,23$GPRMC,045819.00,A,1046.17860,N,10639.55945,E,0.358,,221120,,,A*73
$GPVTG,,T,,M,0.358,N,0.663,K,A*2E
$GPGGA,045819.00,1046.$GPRMC,045820.00,A,1046.17887,N,10639.56002,E,0.482,,221120,,,A*79
5820.00,1046.17887,N,10639.56002,E,1,05,2.56,24.5,M,-2.6,M,,*77
$GPGSA,A,3,$GPRMC,045821.00,A,1046.17958,N,10639.56036,E,1.074,,221120,,,A*70
$GPVTG,,T,,M,1.074,N,1.989,K,A*285821.$GPRMC,045822.00,A,1046.17921,N,10639.56070,E,0.510,,221120,,,A*79
5822.00,1046.17921,N,10639.56070,E,1,05,2.56,2$GPRMC,045823.00,A,1046.17927,N,10639.56120,E,0.451,,221120,,,A*7E
*0A
$GPGSV,3,1,11,10,32,343,,12,25,101,26,15,08,058,21,18,64,193,11*$GPRMC,045824.00,A,1046.17916,*0A
$GPGSV,3,1,11,10,32,343,,12,25,101,26,15,08,058,21,18,64,193,11*7D
$GP$GPRMC,045825.00,A,1046.17935,N,106,24,27,034,,25,33,144,*79
$GPGSV,3,3$GPRMC,045826.00,A,1046.17915,N,10639.56153,E,0.324,,221120,,,A*7B
$GPVTG,,T,,M,0.324,N,0.601,K,,24,27,034,,25,33,144,$GPRMC,045827.00,A,1046.17943,N,10639.56166,E,0.476,,221120,,,A*7F
,24,27,034,,25,33,144,*75
$GPGSV,3$GPRMC,045828.00,A,1046.17992,N,10639.56158,E,0.786,,221120,,,A*7D
$GPVTG,,T,,M,0.786,N,1.455,K,A*2F
$GPGGA,045828.00,1046.17992,N,10639.56158,E,1,05,2.56,24.4$GPRMC,045829.00,A,1046.17974,N,10639.56173,E,0.389,,221120,,,A*76
$GPVTG,,T,,M,0.389,N,0.721,K,A*25
$GPGGA,045829.00,1046.17974,N,10$GPRMC,045830.00,A,1046.17992,N,10639.56132,E,0.521,,221120,,,A*77
$GPVTG,,T,,M,0.521,N,0.966,K,A*2C
$GPGGA,045830.00,1046.17992,N,10639.56132,E,1,05,2.56,24.3,M,-2.6,M,,*77$GPRMC,045831.00,A,1046.17938,N,10639.56183,E,0.309,,221120,,,A*70
$GPVTG,,T,,M,0.309,N,0.573,K,A*28
$GPGGA,045831.00,1046.17938,N,10639.56183,E,1,$GPRMC,045832.00,A,1046.17923,N,10639.55832.00,1046.17923,N,10639.56173,E,1,05,2.56,24.1,M,-2.6,M,,*78
$GP$GPRMC,045833.00,A,1046.17926,N,10639.56162,E,05833.00,1046.17926,N,10639.56162,E,1,05,2.56,23.9,M,-2.6,M,,*73
$GP$GPRMC,045834.00,A,1046.17931,N,10639.56168,E,0.157,,221120,,,A*70
$GPVTG,,T,,M,0*0A
$GPGSV,3,1,11,10,32,343,,12,25,100,27,15,08,058,24,18,64,193,13*7A
$GPGSV,3,2,11,20,58,021,14,23,51,019,$GPRMC,045835.00,A,1046.17920,N,10639.56146,E,0.059*0A
$GPGSV,3,1,11,10,32,343,,12,25,100,27,15,07,058,25,18,64,193$GPRMC,045836.00,A,1046.17917,N,10639.56144,E,0.045,,221120,,,A*7A
,24,27,034,,25,33,144,*78
$GPGSV,3$GPRMC,045837.00,A,1046.17905,N,10639.56188,E,0.263,,221120,,,A*7E
$GPVTG,,T,,M,0.263,N,0.487,K,A*2F
$GPGGA,045837.00,1046.17905,N,24,27,034,,25,33,144,*79
$GPGSV,3$GPRMC,045838.00,A,1046.17914,N,10639.56215,E,0.326,,221120,,,A*76
$GPVTG,,T,,M,0.326,N,0.603,K,A*21
$GPGGA,045838.00,1046.17914,N,1,24,27,034,,25,33,144,*78
$GPGSV,3$GPRMC,045839.00,A,1046.17953,N,10639.56230,E,0.426,,221120,,,A*74
$GPVTG,,T,,M,0.426,N,0.789,K,A*25
$GPGGA,045839.00,1046.17953,N,10639.5623$GPRMC,045840.00,A,1046.17967,N,10639.56216,E,0.327,,221120,,,A*7F
$GPVTG,,T,,M,0.327,N,0.606,K,A*25
$GPGGA,045840.00,1046.17967,N,10639.56216$GPRMC,045841.00,A,1046.18018,N,10639.56248,E,0.712,,221120,,,A*79
$GPVTG,,T,,M,0.712,N,1.319,K,A*2$GPRMC,045842.00,A,1046.18100,N,10639.56269,E,1.253,,221120,,,A*70
$GPVTG,,T,,M,1.253,N,2.320,K,A*25
$GPGGA,045842.00,1046.18100,N,10639.56269,E,$GPRMC,045843.00,A,1046.18106,N,10639.56272,E,0.977,,221120,,,A*71
5843.00,1046.18106,N,10639.56272,E,1,05,2.56,25.5,M,-2.6,M,,*79
$GPGSA,A,3,15,18,20,23,12,,,,,,,,4.02,2.56,3.1$GPRMC,045844.00,A,1046.18062,N,10639.56265,E,0.340,,221120,,,A*7D
$GPVTG,,T,,M,0.340,N,0.629,K,A*29
$GPGGA,045844.00,1046.18062,N,10639.56265,E,1,05,2$GPRMC,045845.00,A,1046.18059,N,10639*0A
$GPGSV,3,1,11,10,32,343,,12,25,100,28,15,07,058,23,18,63,193,11*78
$GP$GPRMC,045846.00,A,1046.180*0A
$GPGSV,3,1,11,10,32,343,,12,25,100,28,15,07,058,24,18,63,193,11*7F
$GP$GPRMC,045847.00,A,1,24,27,034,,25,33,144,*79
$GPGSV,3,3,11,29,08,172,,31,22,218,11,32,$GPRMC,045848.00,A,1046.18021,N,10639.56155,E,0.455,,221120,,,A*75
$GPVTG,,T,,M,0.455,,24,27,034,,25,33,144,*79
$GPGSV,3$GPRMC,045849.00,A,1046.18014,N,10639.56095,E,0.510,,221120,,,A*7F
$GPVTG,24,27,034,,25,33,144,*7B
$GPGSV,3$GPRMC,045850.00,A,1046.17907,N,10639.55440,E,1.192,,221120,,,A*73
$GPVTG,,T,,M,1.192,N,2.208,K,A*20
$GPGGA,045850.00,1046.17907,N,10639.55440$GPRMC,045851.00,A,1046.17809,N,10639.54905,E,1.581,,221120,,,A*76
$GPVTG,,T,,M,1.581,N,2.927,K,A*20
$GPGGA,045851.00,1046.17809,N,10639.54905,E,1,0$GPRMC,045852.00,A,1046.17740,N,10639.54860,E,1.831,,221120,,,A*73
$GPVTG,,T,,M,1.835852.00,1046.17740,N,10639.54860,E,1,03,6.85,10.6,M,-2.6,M,,*70
$GPGSA,A,3,15,$GPRMC,5853.00,1046.17718,N,10639.54831,E,1,03,6.85,10.6,M,-2.6,M,,*78
$GPGSA,A,3,15,23,12,,,,,,,,,,8.52,6.85,5.05*00
$GPGSV,3,1,11,10$GPRMC,045854.00,
$GPGSV,3,1,11,10,32,343,08,12,25,100,27,15,07,058,23,18,63,193,06*79
$GPGSV,3,2,11,$GPRMC,045855.00,A,1046.17633,N,10639.4,27,034,,25,33,144,*72
$GPGSV,3,3,11,29,08,172,,31,22$GPRMC,045856.00,A,1046.17607,N,10639.54815,E,1.650,,221120,,,A*7E
$GPV4,27,034,,25,33,144,*7B
$GPGSV,3,3,11,29,08,172,,31,22,218,06,32,27,298,*46
$GPGLL,1046.17607,N,10639.54815,E$GPRMC,045857.00,A,1046.17590,N,10639.54791,E,1.497,,221120,,,A*78
$GPRMC,045858.00,A,1046.17572,N,10639.54736,E,1.528,,221120,,,A*73
$GPVTG,,T,,M,1.528,N,2.829,K,A*2C
$GPGGA,045858.00,1046.1757$GPRMC,045859.00,A,1046.17547,N,10639.54696,E,1.632,,221120,,,A*77
5859.00,1046.17547,N,10639.54696,E,$GPRMC,045900.00,A,1046.17536,N,10639.54671,E,1.508,,221120,,,A*7F
$GPVTG,,T,,M,1.508,N,2.793,K,A*20
$GPG5900.00,1046.17536,N,10639.54671,E,1,05,2.56,9.7,M,-2.6,M,,*4E
$GPGSA,$GPRMC,045901.00,A,1046.17543,N,10639.54704,E,1.050,,221120,,,A*77
$GPVTG,,T,,M,1.050,N,1.944,K,A*2F
$GPGGA,045901.0001
$GPGSV,3,1,11,10,32,343,15,12,25,100,27,15,07,058,25,1$GPRMC,045902.00,A,1046.17566,N,10639.54745,E,0.548,,221120,,,A*7B
$GPVTG,,T,,M,0.548,N,1.014,K,A*2E
$GPGGA,045902.00,1046.1*01
$GPGSV,3,1,11,10,32,343,12,12,25,100,27,15,07,058,25,18,63,193,$GPRMC,045903.00,A,1046.17592,N,10639.54805,E,0.270,,221120,,,A*7616,24,27,034,,25,33,144,*72
$GPGSV,3,3,11,29,08,172,,31,22,218,06,3$GPRMC,045904.00,A,1046.17566,N,10639.54832,E,0.555,,221120,,,A*7E
$GPVTG,,T,,M,0.555,N,1.028$GPRMC,045905.00,A,1046.17559,N,10639.54834,E,0.544,,221120,,,A*75
$GPVTG,,T,,M,0.544,N,1.007,K,A*20
$GPGGA,045905.00,1046.17559,N,10639.54834,E,1,04,6.27,10$GPRMC,045906.00,A,1046.17552,N,10639.54846,E,0.444,,221120,,,A*79
$GPVTG,,T,,M,0.444,N,0.823,K,A*2E
$GPGGA,045906.00,1046$GPRMC,045907.00,A,1046.17534,N,10639.54835,E,0.517,,225907.00,1046.17534,N,10639.54835,E,1,04,6.28,10.4,M,-2.6,M,,*72
$GPGSA,A,3,15,20,23,12,,,,,,,,,7.98,6.28,4.93*02$GPRMC,045908.00,A,1046.17491,N,1062
$GPGSV,3,1,11,10,32,343,12,12,25,100,28,15,07,058,24,18,63,193,08*74
$GPGSV,3,2,11,20,58,022,10$GPRMC,045909.00,A,1046.17455,N,106,24,27,034,,25,33,144,*7A
$GPGSV,3,3,11,29,08,172,,31,22,218,06,32,27,298,*46
$GPGLL,1046.17455,N,10639.54798,E,045909.00,A,A*63
$GPRMC,045910.00,A,1046.17445,N,10639.54766,E,0.827,,221120,,,A*7D
$GPVTG,,T,,M,0.827,N,1.532,K,A*2B
$GPGGA,045910.00,1046.17445,N,10639.54766,E,1,04,6.28,10.6,M,-2.,24,27,034,,25,33,144,*75
$GPGSV,3,3,11,29,08,172,,31,22,218,,32,27,29$GPRMC,045911.00,A,1046.17439,N,10639.54719,E,0.632,,221120,,,A*75
$GPVTG,,T,,M,0.632,N$GPRMC,045912.00,A,1046.17469,N,10639.54702,E,0.279,,221120,,,A*72
$GPVTG,,T,,M,0.279,N,0.517,K,A*2C
$GPGGA,045$GPRMC,045913.00,A,1046.17452,N,10639.54718,E,0.458,,221120,,,A*75
5913.00,1046.17452,N,10639.54718,E,1,04,6.29,10.8,M,-2.6,M,,*7B
$GPGSA,A,3,15,20,23,12,,,,,,,,,7.99,6.29,4$GPRMC,045914.00,A,1046.17445914.00,1046.17446,N,10639.54740,E,1,04,6.29,10.7,M,-$GPRMC,045915.00,A,1046.17478,N,10639.54794,E,0.264,5
$GPGSV,3,1,11,10,32,343,15,12,25,100,28,15,07,058$GPRMC,045916.00,A,1046.17511,N,10639.54773,E,0.221,,5
$GPGSV,3,1,11,10,33,343,15,12,25,100,27,15,07,058,23,18,63,193,10*73
$GPGSV,3,2,11,20,58,022,09,23,51,020,18,24,27,034,,2$GPRMC,045917.00,A,1046.17530,N,106,24,27,034,,25,33,144,*73
$GPGSV,3,3,11,29,08,172,,31,22,218,,32,27,298,*40
$GPGLL,1046.17530,N,10639.54809,E,045917.00,A,A*69
$GPRMC,045918.00,A,1046.17569,N,10639.54045918.00,A,A*64
$GPRMC,045919.00,A,1046.17599,N,10639.54888,E,0.398,,221120,,,A*74
$GPVTG,,T,,M,0.398,N,0.736,K,A*23
$GPGGA,045919.00,1046.17599,N,10639.54888,E,1,03,6.93,11.1,M,-2.6,M,,*7F
$GPGSA,A,3,15,23,12,,,,,,,,,,8.59,6.93,5.08*01
$GPGSV,3,$GPRMC,045920.00,A,1046.17555,N,10639.54870,E,0.206,,221120,,,A*7F
$GPVTG,,T,,M,0.206,N,0.381,K,A*2D
$GP$GPRMC,045921.00,A,1046.17572,N,10639.54901,E,0.117,,221120,,,A*7F
$GPVTG,,T,,M,0.117,N,0.216,K,A5921.00,1046.17572,N,10639.54901,E,$GPRMC,045922.00,A,1046.175
$GPGSV,3,1,11,10,33,343,16,12,26,100,27,15,07,058,25,18,63,193,06*72
$GPGSV,3,2,11,20,58,022,,23$GPRMC,045923.00,A,1046.17583,N,106
$GPGSV,3,1,11,10,33,343,16,12,26,100,27,15,07,058,26,18,63,193,06*71
$GPGSV,3,2,11,20,5$GPRMC,045924.00,A,1046.176234,27,034,,25,33,144,*7E
$GPGSV,3,3,11,29,08,172,,31,$GPRMC,045925.00,A,1046.17615,N,10639.54925,E,0.157,,221120,,,A*7B
$GPVTG,,T,,M,0.157,N,0.291,K,A*2A
$GPGGA,045925925.00,A,A*63
$GPRMC,045926.00,V,,,,,,,221120,,,N*73
$GPVTG,,,,,,,,,N*30
$GPGGA,045926.00,,,,,0,00,99.99,,,,,,*6A
$GPGSA,A,1,,,,,,,,,,,,,99.99,99.99,99.99*30
$GPGSV,3,1,11,10,33,343,17,12,26,1$GPRMC,045927.00,V,,,,,,,221120,,,N*72
$GPVTG,,,,,,,,,N*30
$GPGGA,045927.00,,,,,0,00,99.99,,,,,,*6B
$GPGSA,A,1,,,,,,,,,,,,,99.99,99.99,99.99*30
$GPGSV,3,1,$GPRMC,045928.00,V,,,,,,,221120,,,N*7D
$GPVTG,,,,,,,,,N*30
$GPGGA,045928.00,,,,,0,00,99.1,,,,,,,,,,,,,99.99,99.99,99.99*30
$GPGSV,3,1,11,10,33,343,17,12$GPRMC,045929.00,V,,,,,,,221120,,,N*7C
$GPVTG,,,,,,,,,N*30
$GPGGA,045929.00,,1,,,,,,,,,,,,,99.99,99.99,99.99*30
$GPGSV,3,1,11,10,33,343,18,12,26,100,28,15,07,058,25,18,63,193,05*70
$GPRMC,045930.00,V,,,,,,,221120,,,N*74
$GPVTG,,,,,,,,,N*30
$GPGGA,045930.00,,,,,0,00,99.99,,,,,,*6D
$GPGSA,A,1,,3,2,$GPRMC,045931.00,V,,,,,,,221120,,,N*75
$GPVTG,,,,,,,,,N*30
$GPGGA,045931.00,,,,,0,00,99.99,,,,,,*0
$GPGLL,,,,,045931.00,V,N*40
$GPRMC,045932.00,A,1046.17574,N,10639.54665,E,0.418,,221120,,,A*7C
$GPVTG,,T,,M,0.418,N,0.775,K,A*2B18,24,26,034,09,25,33,144,*78
$GPGSV,3,3,11,29,08,172,,31,22,218,,32,27,298,1$GPRMC,045933.00,A,1046.17528,N,10639.54573,E,0.378,,221120,,,A*71
$GPVTG,,T,,M,0.378,N,0.700,K,A*28
$GPGGA,045933.00$GPRMC,045934.00,A,1046.17880,N,10639.55535,E,0.186,,221120,,,A*79
$GPVTG,,T,,M,0.186,N,0.344,K,A*2F
$GPRMC,045935.00,A,1046.18008,N,1065935.00,1046.18008,N,10639.56097,E,1,04,2.00,26.9,M,-2.6,M,,*72
$GPGSA,A,3,15,23,32,12,,,,,,,,,2.83,2.00,1.99*0F
$GPGSV,3,1,$GPRMC,045936.00,A,1046.18080,N,1065936.00,1046.18080,N,10639.56324,E,1,04,2.00,29.6,M,-2.6,M,,*7A
$GPGSA,A,3,15,23,32,12,,,,,,,,,2.83$GPRMC,045937.00,A,1046.18145,N,106F
$GPGSV,3,1,11,10,33,343,17,12,26,100,29,15,07,058,26,18,63,193,08*70
$GPGSV,3,2,11,20,58,022,08,23,52,020,17,24,26,034,09,25,33,144,*77
$GPRMC,045938.00,A,1046.18195,N,106,24,26,034,13,25,33,144,*75
$GPGSV,3,3,11,29,08,172,,31,22,219,,32,27,298,10*40
$GPGLL,1046.18195,N,10639.56679,E,045938.00,A,A*6B
$GPRMC,045939.00,A,1046.18258,N,10639.56815,E,0.588,,221120,,,A*72
$GPVTG,,T,,M,0.588,N,1.089,K,A*26
$GPGGA,045939.00,1046.18258,,24,26,034,13,25,33,144,*74
$GPGSV,3,3,11,29,08,172,,31,22,219,,32,27,$GPRMC,045940.00,A,$GPRMC,045941.00,A,1046.18280,N,10639.56877,E,0.524,,221120,,,A*7A
$GPVTG,,T,,M,0.524,N,0.971,K,A*2F
$GPGGA,045941.00,1046.18280,N,10639.56877,E,1,06,1.70,41.3$GPRMC,045942.00,A,1046.18293,N,10639.56878,E,0.645,,221120,,,A*70
$GPVTG,,T,,M,0.645,N,1.195,K,A*28
$GPGGA,045942.00,1046.18293,N,10639.56878,E,1,06,1.7$GPRMC,045943.00,A,1046.18273,N,10639.56882,E,0.394,,221120,,,A*73
$GPVTG,,5943.00,1046.18273,N,10639.56882,E,$GPRMC,045944.00,A,1046.18282,N,10639.56899,E,0.349,,22168*00
$GPGSV,3,1,11,10,33,343,19,12,26,100,29,15,07,058,26,18,63,193,08*7E$GPRMC,045945.00,A,1046.18259,N,106*00
$GPGSV,3,1,11,10,33,343,19,12,26,100,29,15,07,058,27,$GPRMC,045946.00,A,1046.18237,N,10639.56982,E,0.202,,221120,,,A*79
$GPVTG,,4,26,034,08,25,33,144,*71
$GPGSV,3$GPRMC,045947.00,A,1046.18223,N,10639.57026,E,0.074,,221120,,,A*78
$GPVTG,,T,,M,0.074,N,0.137,K,A*25
$GPGGE,045947.00,A,A*60
$GPRMC,045948.00,A,1046.18204,N,10639.57047,E,0.138,,221120,,,A*7C
$GPVTG,,T,,M,0.138,N,0.256,K,A*28
$GPGGA,045948.00,1046$GPRMC,045949.00,A,1046.18204,N,10639.57125,E,0.360,,221120,,,A*77
$GPVTG,,T,,M,0.360,N,0.666,K,A*20
$GPGGA,045949.00,1046.18204,N,10$GPRMC,045950.00,A,1046.18180,N,10639.57191,E,0.495,,221120,,,A*72
$GPVTG,,T,,M,0.495,N,0.916,K,A*25
$GPGGA,045950.00,1046.18180,N,10639.57191,E,1,05,1.70,51.1,M,-2.6,M,,*7B
$GPRMC,045951.00,A,1046.18168,N,10639.57272,E,0.767,,221120,,,A*75
$GPVTG,,T,,M,0.767,N,1.420,K,A*22
$GPGGA,0459*00
$GPGSV,3,1,11,10,33,343,19,12,$GPRMC,045952.00,A,1046.18145,N,10639.57315,E,0.871,,221120,,,A*71
$GPVTG,,T,,M,0.871,N,1.6*00
$GPGSV,3,1,11,10,33,343,19,12,26,100,29,15,07,058,28,18,63,193,$GPRMC,045953.00,A,1046.18125,N,1064,26,034,14,25,33,144,*73
$GPGSV,3,3,11,29,08,172,,31,22,219,,32,27$GPRMC,045954.00,A,1046.18116,N,10639.57389,E,0.864,26,034,14,25,33,144,*7D
$GPGSV,3,3,11,29,08,172,,31,22,219,,32,27,298,10*40
$GPGLL,1046.18116,N,10639.573$GPRMC,045955.00,A,1046.18101,N,10639.57386,E,$GPRMC,045956.00,A,1046.18088,N,10639.57370,E,0.681,,221120,,,A*77
$GPVTG,,T,,M,0.681,N,1.261,K,A*28
$GPGGA$GPRMC,045957.00,A,1046.18060,N,10639.57367,E,0.571,,221120,,,A*7A
$GPVTG,,5957.00,1046.18060,N,10639.57367,E,$GPRMC,045958.00,A,1046.18031,N,10639.57316,E,0.359,,221120,,,A*7B
$GPVTG,,T,,M,0.359,N,0.665,K,A*29
$GPGGA5958.00,1046.18031,N,10639.57316,E,$GPRMC,045959.00,A,1046.17988,N,10639.57228,E,0.166,,221120,,,A*7C
$GPVTG,,T,,M,0.166,N,0.308,K,A*29
$GPGGA,04595*00
$GPGSV,3,1,11,10,33,343,18,12,26,100,27,15,07,058,28,18,63,193,*77
$GPGSV,3,$GPRMC,050000.00,A,1046.17952,N,10639.57104,E,0.519,,221120,,,A*7B
$GPVTG,,T,,M,0.5194,26,034,14,25,33,144,*7C
$GPGSV,3,3,11,29,08,1$GPRMC,050001.00,A,1046.17917,N,104,26,034,14,25,33,144,*7C
$GPGSV,3,3,11,29,08,172,,31,22,219,,32,27,2$GPRMC,050002.00,A,1046.17898,N,10639.56986,E,0.605,,221120,,,A*73
$GPVTG,,T$GPRMC,050003.00,A,1046.17886,N,10639.56971,E,0.800,,221120,,,A*7E
$GPVTG,,T,,M,0.800,N,1.482,K,A*24
$GPGGA,050003.00,1046.17$GPRMC,050004.00,A,1046.17870,N,10639.56944,E,0.857,,0004.00,1046.17870,N,10639.56944,E,1,04,6.98,49.6,M,-2.6,M,,*71
$GPGSA,A,3,24,15,23,12,,,,,,,,,8.66,$GPRMC,050005.00,A,1046.17855,N,10639.56903,E,0.926,,221120,,,A*76
0005.00,1046.17855,N,10639.56903,E,$GPRMC,050006.00,A,1046.17845,N,10639.56868,E,0.932,,221120,,,A*7D
$GPVTG,,T,,M,0.932,N,1.727A
$GPGSV,3,1,11,10,33,343,18,12,26,099,27,15,07,059,26,18,63,193,*79
$GPGSV,3,2,11,20,58,022,,23,52,0$GPRMC,050007.00,A,1046.17836,N,106A
$GPGSV,3,1,11,10,33,343,18,12,26,099,27,15,07,059,26,18,63,193,*7$GPRMC,050008.00,A,1046.17827,N,10639.56853,E,0.744,,221120,,,A*70
$GPVTG,26,034,14,25,33,144,*77
$GPGSV,3,3$GPRMC,050009.00,A,1$GPRMC,050010.00,A,1046.17834,N,10639.56968,E,0.146,,221120,,,A*76
$GPVTG,,T,,M,0.146,N,0.270,K,A*25
$GPGGA,050010.00,1046.17834,N,10639.56968,E,1,04,7.00,$GPRMC,050011.00,A,1046.17836,N,10639.57023,E,0.222,,221120,,,A*73
$GPVTG,,T,,M,0.222,N,0.412,K,A*26
$GPGGA,050011.00,1046.17836,N,10639.57023,E,1,04,7.00,48.1,M,-2.6,M,,*78
$GPGSA,A,3$GPRMC,050012.00,A,1046.17836,N,10639.57061,E,0.260,,221120,,,A*70
$GPVTG,,T,,M,0.260,N,0.482,K,A*29
$GPG0012.00,1046.17836,N,10639.57061,E,1,04,7.01,48.0,M,-2.6,M,,*7D
$GPGSA,A,3,24,15,23,12,,,,,,,$GPRMC,050013.00,A,1046.17845,N,1064
$GPGSV,3,1,11,10,33,343,16,12,26,099,27,15,07,059,25,18,62,192,12*77
$GPGSV,3,2,11,20,59,023,,23,52,021,15,24,26,034,14,$GPRMC,050014.00,A,1046.17843,N,1064,26,034,12,25,33,144,*76
$GPGSV,3,3,11,29,08,172,,31,22,219,,32,27,298,*41
$GPGLL,1046.17843,N,10639.57065,E,050014.00,A,A*6F
$GPRMC,050015.00,A,1046.17848,N,10639.57063,E,0.169,,221120,,,A*76
$GPVTG,,T,,M,0.169,N,0.314,K,4,26,034,12,25,33,143,*71
$GPGSV,3,3,11,29,08,172,,31,22,219,,32,27,2$GPRMC,050016.00,A,1046.17853,N,10639.57099,E,0.201,,221120,,,A*77
$GPVTG,,T,,M,0.201,N$GPRMC,050017.00,A,1046.17859,N,10639.57077,E,0.174,,221120,,,A*7D
$GPVTG,,T,,M,0.174,N,0.323,K,A*23
$G$GPRMC,050018.00,A,1046.17867,N,10639.57112,E,0.262,,221120,,,A*79
0018.00,1046.17867,N,10639.57112,E,$GPRMC,050019.00,A,1046.17880,N,10639.57169,E,0.372,,221120,,,A*7D
$GPVTG,,T,,M,0.372,N,0.0019.00,1046.17880,N,10639.57169,E,1,04,7.03,47.0,M,-2.6,M,,*7F
$GPGSA,A,3,24,15,23,12,,,,,,,,,8.70,7.03,5.13*0$GPRMC,050020.00,A,1046.17894,N,10639.57239,E,0.549,,221120,,,A*7A
$GPVTG,,T,,M,0.549,NE
$GPGSV,3,1,11,10,33,343,17,12,26$GPRMC,050021.00,A,1046.17927,N,10639.57262,E,0.690,,221120,,,A*7B
$GPVTG,,T,E
$GPGSV,3,1,11,10,33,343,17,12,26,099,26,15,07,059,25,18,62,192$GPRMC,050022.00,A,1046.17924,N,10639.57254,E,0.369,,221120,,,A*7D
$GPVTG,,T,,M,0.369,N,0.684,K,A*25
$GPGGA,050022.00,1046.17924,N,10639.57254,E,1,04,7.03,46.9,M,-2.6,M,,*7D
$,034,11,25,33,143,*71
$GPGSV,3,3,11,29,08,171,,31,23,219,,32,27,299,*42
$GPGLL,1046.17924,N,10639.57254$GPRMC,050023.00,A,1046.17939,N,10639.57245,E,0.403,,221120,,,A*7B
$G$GPRMC,050024.00,A,1046.17949,N,10639.57235,E,0.374,,221120,,,A*7B
$GPVTG,,T,,M,0.374,N,0.692,K,A*2E
$GPGGA,050024.00,1046.17949,N,10639.57235,E,1,04,7.04,46.5,M,-$GPRMC,050025.00,A,1046.17961,N,10639.57248,E,0.364,,221120,,,A*7B
$GPVTG,,T,,M,0.364,N,0.674,K,A*27
$GPGGA,$GPRMC,050026.00,A,1046.17963,N,10639.57261,E,0.321,,221120,,,A*70
0026.00,1046.17963,N,10639.57261,E,$GPRMC,050027.00,A,1046.17970,N,10639.57277,E,0.414,,221120,,,A*75
$GPVTGD
$GPGSV,3,1,11,10,33,343,,12,26,099,26,15,07,0$GPRMC,050028.00,A,1046.17971,N,10639.57273,E,0.223,,221120,,,A*7D
$GPVTG,,TD
$GPGSV,3,1,11,10,33,343,,12,26,0$GPRMC,050029.00,A,1046.17974,N,10639.57089,E,0.601,,221120,,,A*7A
$GP,034,11,25,33,143,*72
$GPGSV,3,3,11,29,08,171,,31,23,219,,32,27,299,*42
$GPGLL,1046.17974,N$GPRMC,050030.00,A,1046.17970,N,10639.57027,E,0.604,,221120,,,A*77
$G30.00,A,A*6E
$GPRMC,050031.00,A,1046.17967,N,10639.56987,E,0.572,,221120,,,A*70
$GPVTG,,T,,M,0.572,N,1.059,K,A*2E
$GPGGA,050031.00$GPRMC,050032.00,A,1046.17966,N,10639.56948,E,0.581,,221120,,,A*7D
$GPVTG,,T,,M,0.581,N,1.076,K,A*2F
$GPGGA,050032.00,1046.17966,N,10639.56948,E,1,04,7.06,46.0,M,-2.6$GPRMC,050033.00,A,1046.17970,N,1060033.00,1046.17970,N,10639.5$GPRMC,050034.00,A,1046.17972,N,10639.569
$GPGSV,3,1,11,10,3$GPRMC,050035.00,A,1046.17970,N,10639.56949
$GPGSV,3,1,11,10,33,343,04,12,26,099,26,15$GPRMC,050036.00,A,1046.17968,N,10639.56906,E,0.344,,221120,,,A*72
$GPVTG26,034,12,25,33,143,*$GPRMC,050037.00,A,1046.17972,N,10639.56944,26,034,12,25,33,143,*71
$GPGSV,3,3,11,29,0$GPRMC,050038.00,A,1046.17978,N,10639.56993,E,0.072$GPRMC,050039.00,A,1046.17986,N,10639.57044,E,0.126,,221120,,,A*75
$GPVTG,,T,,M,0.126$GPRMC,050040.00,A,1046.17979,N,10639.56993,E,0.095,,221120,,,A*70
$0040.00,1046.17979,N,$GPRMC,050041.00,A,1046.17987,N,10639.57032,E,0.112,,20041.00,1046.17987,N,10639.57032,E,1,04,7.09,45.9,M,-2.6,M,,*7A
$GPGS$GPRMC,050042.00,A,1046.18000,N,10639.574
$GPGSV,3,1,11,10,3$GPRMC,050043.00,A,1046.17999,N,10639.570026,034,11,25,33,143,*73
$GPGSV,3,3,11,29,08,171,,31,23,$GPRMC,050044.00,A,1026,034,12,25,33,143,*71
$GPGSV,3,3,11,29$GPRMC,050045.00,A,1046.18006$GPRMC,050046.00,A,1046.18014,N,10639.56954,E,0.182,,221120,,,A*77
$GPVTG,,T,,M,0.182,N,0.337,K,A*2F
$GPGGA,050046.00,1046.18014,N$GPRMC,050047.00,A,1046.18020,N,10639.56942,E,0.183,,221120,,,A*77
$GPVTG,,T,,M,0.183,N,0.339,K,A*20
$GPGGA,050047.00,1046.18020,N,10639.56942,E,1,0$GPRMC,050048.00,A,1046.18038,N,10639.57040,E,0.167,,221120,,,A*71
$GPVTG,,T,,M,0.10048.00,1046.18038,N,10639.57040,E,$GPRMC,050049.00,A,1046.18038,N,10639.57039,E,0.106,,221120,,,A*79
$GPVTG,,T,,M,0.106,N,0.197,K,A*20
$GPGSV,3,1,11,10,33,343,13,12,26,099,25,15,07,0$GPRMC,050050.00,A,1046.18025,N,10639.56930,E,0.287,,221120,,,A*76
$GPVTG,,T,,M,0.287,N,0.532,K,A*2A
$GPGGA,01
$GPGSV,3,1,11,10,33,343,13,12,26,099,25,15,07,059,26,18,62,192,*70
$G$GPRMC,050051.00,A,1046.18022,N,10639.56926,E,0.316,,221120,,,A*7E
$G26,034,15,25,33,143,*72
$GPGSV,3,3,11,29,08,171,,31,23,219,,32,27,2$GPRMC,050052.00,A,1046.18016,N,10639.56944,E,0.263,,221120,,,A*$GPRMC,050053.00,A,1046.18019,N,10639.56936,E,0.267,,221120,,,A*72
$GPVTG,,T,,M,0.267,N,0.494,K,A*29
$G$GPRMC,050054.00,A,1046.18014,N,10639.56900,E,0.438,,221120,,,A*71
$GPVTG,,T,,M,0.438,N,0.812,K,A*27
$GPRMC,050055.00,A,1046.18005,N,10639.56955,E,0.289,,22110055.00,1046.18005,N,10639.56955,E,1,04,7.13,44.4,M,-2.6,M,,*7D
$GPGSA,A,3,24,15,23,12,,,,,,,,,8.80,7.13,5.17*04
$GPGSV,3,1,11,$GPRMC,050056.00,A,1046.17994,N,1064
$GPGSV,3,1,11,10,33,343,14,12,26,099,25,15,07,059,26,18,62,192,*77
$GPGSV,3,2,11,20,59,023,,23,52,021,13,24,26,034,17,25,3$GPRMC,050057.00,A,1046.17974,N,1065
$GPGSV,3,1,11,10,33,343,13,12,26,099,25,15,07,059,26,18,62,192,*70
$GPGSV,3,2,11,20,59,023,,23,52,021,14,24,26,034,1$GPRMC,050058.00,A,1046.17968,N,10639.56964,E,0.448,,221120,,,A*75
$GPVTG,,T,,M,0.448,N,0.830,K,A*20
$GP26,034,17,25,33,143,*75
$GPGSV,3,3,11,29,08,171,,31,23,219,,32,27,299,*42
$GPGLL,1046.17968,N,10639.56964,E$GPRMC,050059.00,A,1046.17982,N,10639.56974,E,0.200,,221120,,,A*7B
$GPVTG,,T,,M,0.200,N,0.370,K,A*25
$GPGGA,050059.00,10059.00,A,A*62
$GPRMC,050100.00,A,1046.17992,N,10639.56969,E,0.149,,221120,,,A*75
$GPVTG,,T,,M,0.149,N,0.277,$GPRMC,050101.00,A,1046.17992,N,10639.56947,E,0.117,,221120,$GPRMC,050102.00,A,1046.17999,N,10639.56941,E,0.056,,221120,,,A*79
0102.00,1046.17999,N,10639.56941,E,$GPRMC,050103.00,A,1046.17997,N,10639.56888,E,0.119,,221120,,,A*78
$GPVTG,,T,,M,0.119,N,1
$GPGSV,3,1,11,10,33,343,10,12,26$GPRMC,050104.00,A,1046.17985,N,10639.56830,E,0.400,,221120,,,A*72
$GPVTG,,T,,M,0.400,N,0.740,K,A*21
$GPGSV,3,1,11,10,33,343,09,12,26$GPRMC,050105.00,A,1046.18019,N,10639.56765,E,0.669,,221120,,,A*72
$GPVTG,24,26,034,16,25,33,143,*73
$GPGSV,3,3,11,29,08,171,,31,23,219,,32,$GPRMC,050106.00,A,1046.18043,N,106E,050106.00,A,A*$GPRMC,050107.00,A,1046.18049,N,10639.56717,E,0.842,,221120,,,A*77
$GPVTG,,T,,M,0.842,N,1.559,K,A$GPRMC,050108.00,A,1046.18137,N,10639.56742,E,1.245,,221120,,,A*7C
$GPVTG,,T,,M,1.245,N,2.306,K,A*26
$GPGGA,050108.00,1046.18137,N,10639.56742,E,1,06,2.$GPRMC,050109.00,A,1046.18176,N,10639.56828,E,0.954,,221120,,,A*71
